     4.01           OBSERVATION DATA    M                   RINEX VERSION / TYPE
GnssLogger          Google 14           20241027 145154 UTC PGM / RUN BY / DATE
Google GnssLogger                                           MARKER NAME
Unknown                                                     MARKER NUMBER
Unknown             Unknown                                 OBSERVER / AGENCY
Unknown             GnssLogger          v3.1.0.3            REC # / TYPE / VERS
Unknown             Unknown                                 ANT # / TYPE
        0.0000        0.0000        0.0000                  ANTENNA: DELTA H/E/N
G    4 C1C L1C D1C S1C                                      SYS / # / OBS TYPES
R    4 C1C L1C D1C S1C                                      SYS / # / OBS TYPES
E    4 C1C L1C D1C S1C                                      SYS / # / OBS TYPES
  2024    10    27    14    51   54.0000000     GPS         TIME OF FIRST OBS
 9 R01  1 R02 -4 R08  6 R10 -7 R11  0 R12 -1 R17  4 R18 -3  GLONASS SLOT / FRQ #
   R24  2                                                   GLONASS SLOT / FRQ #
Google Pixel 6a (Android 14) HW Year: 2020 HW Model:        COMMENT
Broadcom, BCM4776, GLL ver. 154.20.24 587347                COMMENT
                                                            END OF HEADER
> 2024 10 27 14 51 54.9996297  0 21                      
G08  25051680.38325   -347749.79825     -2481.22925        30.98025
G10  20876173.12625     76756.19725       523.75925        31.84725
G15  24492541.06723   -616812.65223     -4410.44323        23.35523
G21  24898893.55526    220854.00426      1536.29526        37.22626
G23  20460202.39723   -277066.74423     -1993.14223        18.80023
G24  21439669.92525   -414148.55125     -2962.69725        29.95625
G28  24901157.28824    399087.45024      2858.57624        24.15624
G32  21890679.49827    124020.35127       857.93427        41.54127
R10  22965814.69724   -443635.69824     -3179.91624        29.42824
R02  20698132.38125     94437.76525       656.48225        31.19625
R18  22932259.22726    312534.34726      2173.40826        38.42526
R12  23250231.99925    449575.31725      3177.47325        29.64125
R11  21333417.18325     83228.15425       532.94825        32.30825
R01  19949050.26022   -283980.92522     -2042.42322        15.92422
R24  21526039.53326   -668036.67926     -4733.56726        39.59926
R17  20540317.43426   -138025.90626     -1037.96326        36.45426
R08  23619102.33622   -544853.71922     -3977.45422        16.14822
E03  24530532.56624   -378809.67224     -2704.71424        26.89824
E07  26798034.40725    178531.13625      1263.69125        31.00925
E15  24904325.79423   -492628.44323     -3528.72723        22.73623
E25  27727014.48723    119983.68023       860.12123        22.67723
> 2024 10 27 14 51 55.9996290  0 21                      
G08  25051937.90425   -350233.96525     -2483.23225        30.73925
G10  20875862.54125     77279.13225       523.53025        30.81725
G15  24493162.83624   -621226.25924     -4410.90624        23.95424
G21  24898389.00426    222391.70326      1535.93226        36.78426
G23  20460372.97922   -279055.58622     -1994.54822        13.46822
G24  21440027.87825   -417112.06325     -2964.37925        29.79125
G28  24900400.61123    401942.49923      2859.51923        23.38523
G32  21890305.65726    124877.72226       857.61626        40.78826
R10  22966207.72525   -446813.31025     -3180.75125        30.44625
R02  20697801.71025     95093.09425       655.62725        30.77925
R18  22931642.85426    314708.56226      2174.22926        38.37726
R12  23249422.85924    452751.84024      3176.16224        29.41324
R11  21333108.09725     83760.97425       533.15125        32.38825
R01  19949211.24823   -286022.50123     -2043.40023        18.29023
R24  21526725.15826   -672770.12526     -4731.73726        39.29526
R17  20540296.74826   -139064.71626     -1039.81426        36.08726
R08  23619638.96423   -548825.65423     -3977.21523        17.96623
E03  24530838.65424   -381514.94424     -2705.98224        24.71224
E07  26797583.81925    179795.56525      1263.53625        30.78925
E15  24904785.67623   -496163.14123     -3529.54923        22.20223
E25  27726638.24823    120843.76723       860.52223        22.82523
> 2024 10 27 14 51 56.9996284  0 20                      
G08  25052234.09925   -352719.11125     -2484.53825        30.96025
G10  20875578.93725     77801.43425       522.47125        31.04925
G15  24493820.28124   -625638.23724     -4410.94224        24.65324
G21  24897920.12926    223930.23426      1539.29126        36.84526
G23  20460579.83522   -281071.22722     -1993.39722        13.62322
G24  21440414.91025   -420076.66025     -2964.93525        30.42025
G28  24899672.41524    404801.65824      2856.53524        24.08524
G32  21889959.09726    125734.83526       857.26226        40.93926
R10  22966629.83325   -449990.25825     -3181.79925        30.87825
R02  20697495.32225     95747.65625       655.03025        31.26325
R18  22931046.56726    316882.13926      2174.82626        38.38526
R12  23248651.49325    455927.45825      3175.90825        30.05025
R11  21332839.78225     84293.13525       532.85225        32.59225
R01  19949420.80322   -288065.84822     -2043.40622        16.84022
R24  21527432.66826   -677505.23526     -4735.58926        39.64326
R17  20540314.43626   -140104.90726     -1041.14126        36.71926
E03  24531178.61824   -384220.59024     -2706.45324        24.05824
E07  26797162.01125    181059.06225      1263.58725        31.14325
E15  24905278.83423   -499702.69923     -3529.70823        19.91023
E25  27726294.98524    121702.97924       859.63524        24.31224
> 2024 10 27 14 51 57.9996278  0 21                      
G08  25052531.19425   -355204.77025     -2484.50825        30.40225
G10  20875305.52725     78322.16825       519.86425        31.10625
G15  24494484.62124   -630052.06924     -4410.56424        24.16824
G21  24897447.05626    225469.24326      1540.10026        36.77826
G23  20460780.39622   -283065.88122     -1994.55522        15.56422
G24  21440805.53925   -423041.22125     -2964.25125        30.30625
G28  24898949.61623    407660.59023      2855.88423        23.47023
G32  21889617.03326    126590.93126       855.90326        40.37226
R10  22967053.44024   -453172.06524     -3180.81724        28.79124
R02  20697203.02525     96401.69425       653.70825        31.07025
R18  22930463.77026    319055.49626      2175.25526        37.30326
R12  23247873.23224    459103.52424      3176.39024        29.13724
R11  21332558.27725     84824.52225       532.29225        32.39025
R01  19949618.96622   -290109.10122     -2042.98822        16.86422
R24  21528142.57726   -682241.81726     -4737.10226        40.14226
R17  20540336.32126   -141146.20126     -1041.89826        36.89826
R08  23620830.04022   -556780.41122     -3977.24822        13.54922
E03  24531512.58724   -386926.23324     -2706.74224        23.94324
E07  26796740.20325    182322.51625      1263.57925        30.00425
E15  24905769.59423   -503241.67223     -3529.79623        19.65823
E25  27725950.82423    122562.33323       859.27023        21.72323
> 2024 10 27 14 51 58.9996271  0 21                      
G08  25052787.81625   -357690.61925     -2485.17725        30.03125
G10  20874994.94225     78842.93325       520.53425        32.45525
G15  24495118.38224   -634463.59324     -4410.52124        24.33224
G21  24896944.00426    227006.69626      1537.86126        37.60826
G23  20460957.57423   -285060.47523     -1994.55523        17.76423
G24  21441158.39525   -426006.27725     -2964.57825        30.76925
G28  24898197.73624    410518.64524      2855.56024        24.51024
G32  21889244.69126    127446.97526       856.21426        40.70826
R10  22967444.66924   -456354.52024     -3180.80724        28.29424
R02  20696867.55725     97055.48325       652.85225        32.24725
R18  22929842.90026    321227.87726      2172.83726        37.82926
R12  23247057.79724    462279.59124      3176.49924        28.57424
R11  21332243.49525     85355.09425       530.87225        32.78525
R01  19949790.74723   -292152.20423     -2040.74523        17.63823
R24  21528824.00526   -686978.82326     -4737.53326        40.48426
R17  20540322.83026   -142188.28126     -1042.30026        36.68926
R08  23621301.31324   -560781.71524     -3978.04524        24.79724
E03  24531812.67924   -389631.96424     -2706.69424        24.34524
E07  26796288.41624    183586.07524      1263.49724        29.25024
E15  24906231.87423   -506772.25923     -3530.10723        23.16423
E25  27725574.88423    123421.83023       859.37323        21.90023
> 2024 10 27 14 51 59.9996265  0 21                      
G08  25053084.31125   -360176.87025     -2485.71525        30.56725
G10  20874712.83725     79364.33225       521.53225        31.51425
G15  24495775.82724   -638874.45824     -4411.39124        24.92224
G21  24896468.53326    228543.52126      1536.04826        38.17526
G23  20461153.63822   -287054.81322     -1994.55522        17.03122
G24  21441544.82725   -428972.20125     -2965.75225        31.93325
G28  24897476.73624    413375.86624      2855.08124        24.68224
G32  21888903.82726    128302.94226       855.84126        41.02126
R10  22967863.47924   -459537.49024     -3181.67424        29.10924
R02  20696565.96625     97708.96125       652.83125        31.94325
R18  22929262.80226    323399.61426      2172.08326        37.83026
R12  23246272.34124    465455.70624      3176.48824        27.89224
R11  21331953.29625     85884.61425       529.24225        32.54225
R01  19949950.23722   -294196.69122     -2041.62722        17.06422
R24  21529534.81326   -691714.73626     -4734.69726        40.44326
R17  20540339.61926   -143230.56026     -1042.29026        36.49526
R08  23621875.41623   -564760.01523     -3978.74823        23.15523
E03  24532150.24623   -392343.20423     -2706.08223        22.63623
E07  26795863.31025    184849.96225      1263.48825        30.39125
E15  24906722.93523   -510302.45523     -3529.59323        21.51623
E25  27725230.12323    124280.91823       859.24923        20.78623
> 2024 10 27 14 52 00.9996259  0 18                      
G08  25053378.70725   -362663.23125     -2485.64825        29.94425
G10  20874431.63225     79886.21525       522.79725        30.00925
G15  24496426.67724   -643283.55924     -4410.89324        24.20424
G21  24895994.86126    230081.93326      1540.08026        36.65526
G24  21441926.46325   -431938.38425     -2966.37725        30.42125
G28  24896753.03723    416231.66223      2854.52623        22.88123
G32  21888559.66526    129158.69326       854.65426        39.73426
R10  22968274.19525   -462722.03125     -3185.93725        29.72925
R02  20696263.17525     98362.49425       652.02025        31.29925
R18  22928671.31126    325570.86026      2171.13126        37.44626
R12  23245518.36324    468632.10124      3176.44024        28.62724
R11  21331677.48725     86413.33625       528.80225        32.12525
R24  21530240.22526   -696450.82326     -4735.46926        39.11426
R17  20540344.11626   -144273.31726     -1043.15326        36.01526
R08  23622451.61723   -568736.69423     -3976.27223        22.83323
E03  24532488.41223   -395058.34723     -2705.38623        18.74023
E07  26795440.30324    186113.65324      1263.80924        29.46924
E25  27724887.76023    125139.15523       858.61723        20.98623
> 2024 10 27 14 52 01.9996252  0 20                      
G08  25053640.42624   -365148.81324     -2484.45724        29.17524
G10  20874122.54625     80408.05325       522.84925        30.11025
G15  24497067.33324   -647689.75324     -4411.37524        24.78124
G21  24895489.71126    231622.03726      1544.46526        36.10626
G24  21442276.92124   -434904.46924     -2965.92124        29.49124
G28  24896000.25823    419086.80323      2855.04923        22.09723
G32  21888184.92526    130014.38826       855.29026        40.25026
R10  22968667.52225   -465908.04925     -3187.66725        30.21025
R02  20695940.59825     99016.10725       653.11625        30.43125
R18  22928050.74126    327740.66126      2168.51926        37.32526
R12  23244722.41424    471808.39624      3177.04324        27.99324
R11  21331365.40325     86941.27425       527.28125        30.92725
R01  19950344.46422   -298303.70522     -2040.75122        16.71222
R24  21530915.95726   -701188.37526     -4738.68826        38.57926
R17  20540335.72125   -145317.24225     -1044.06325        35.29825
R08  23623002.63623   -572707.97223     -3975.56823        19.25823
E03  24532792.10123   -397764.02223     -2705.48023        20.27323
E07  26794989.71525    187377.80225      1264.06025        29.60025
E15  24907677.77323   -517363.84223     -3530.22123        20.64823
E25  27724512.71923    125997.47223       858.84123        21.81223
> 2024 10 27 14 52 02.9996245  0 20                      
G08  25053930.02524   -367635.29424     -2486.22324        29.36824
G10  20873846.73725     80929.42525       521.63025        32.07325
G15  24497731.67324   -652100.43524     -4411.48424        26.63724
G21  24895022.93426    233161.55926      1542.21226        37.90526
G24  21442661.85425   -437871.42625     -2967.55025        30.07725
G28  24895279.55724    421941.94324      2855.13224        23.67524
G32  21887843.46126    130870.39626       854.96826        41.20126
R10  22969096.82524   -469094.56224     -3187.41824        28.94024
R02  20695628.51525     99670.41225       654.72725        32.20225
R18  22927473.04126    329910.76626      2169.68626        37.36026
R12  23243961.24024    474987.78524      3178.92924        27.33724
R11  21331084.49725     87468.54225       527.24225        31.43325
R01  19950562.41323   -300344.40923     -2040.75123        17.96823
R24  21531621.96826   -705925.41526     -4736.36326        39.73526
R17  20540345.01526   -146361.53026     -1044.27026        35.70026
R08  23623558.75124   -576679.65124     -3973.88324        26.33624
E03  24533129.66823   -400469.20623     -2705.35023        19.65623
E07  26794568.80624    188641.78924      1264.36924        29.17524
E15  24908169.73323   -520894.67023     -3530.61723        23.26723
E25  27724167.05923    126855.45123       858.54423        22.60923
> 2024 10 27 14 52 03.9996240  0 19                      
G08  25054229.51825   -370122.31725     -2487.63525        29.92525
G10  20873568.82925     81450.40225       521.22325        32.75125
G15  24498396.91324   -656511.38024     -4413.13124        27.26824
G21  24894550.16226    234698.47726      1535.80626        38.47026
G24  21443047.98725   -440839.10725     -2968.81125        31.66325
G28  24894558.55624    424797.24124      2854.59024        24.58324
G32  21887503.49726    131726.00926       855.34926        41.46526
R10  22969508.74024   -472280.96124     -3187.63224        28.96324
R02  20695329.02225    100324.72325       653.86225        33.28225
R18  22926883.94926    332081.43126      2171.47926        38.43226
R12  23243179.98124    478167.31224      3177.20124        26.52324
R11  21330801.19425     87995.66425       527.32025        32.46625
R24  21532317.48726   -710662.12326     -4735.63326        40.29426
R17  20540360.30426   -147406.08926     -1044.23726        36.60426
R08  23624116.36524   -580654.47724     -3976.06924        26.62424
E03  24533465.43523   -403216.26023     -2704.36123        22.58923
E07  26794146.99824    189905.80024      1264.55024        28.99124
E15  24908660.79323   -524425.40623     -3530.68323        18.95223
E25  27723821.99723    127713.56223       858.86323        22.24623
> 2024 10 27 14 52 04.9996233  0 20                      
G08  25054496.63325   -372609.48725     -2486.70225        30.81125
G10  20873262.74125     81971.25425       520.50025        32.22425
G15  24499024.67824   -660918.83524     -4408.57024        28.17624
G21  24894045.61126    236235.63826      1536.96626        37.99826
G24  21443407.13825   -443807.87625     -2969.92825        32.12325
G28  24893806.97623    427652.60223      2854.98123        22.68023
G32  21887129.05626    132582.00726       856.39226        41.45326
R10  22969903.26724   -475467.45924     -3186.76124        28.65624
R02  20694996.55225    100978.52725       653.39825        31.44725
R18  22926266.67626    334251.14426      2169.18026        36.85226
R12  23242367.84424    481347.87624      3175.76124        26.89724
R11  21330500.50225     88522.54425       527.36425        32.51325
R24  21532986.32426   -715399.10426     -4736.35926        38.97426
R17  20540345.91426   -148450.86326     -1045.06626        35.97026
R08  23624652.39324   -584628.95924     -3974.73424        24.94224
E02  28553537.19823     11400.39023      1629.26723        17.66523
E03  24533773.62223   -405920.92323     -2704.32723        23.44023
E07  26793699.10824    191170.81124      1264.68724        28.89424
E15  24909120.97423   -527956.31123     -3530.32523        18.34823
E25  27723448.75623    128571.61423       858.70623        20.33223
> 2024 10 27 14 52 05.9996227  0 18                      
G08  25054785.63325   -375095.95425     -2485.95225        30.40025
G10  20872981.53625     82492.64625       522.13125        32.96025
G15  24499679.42524   -665326.29424     -4405.84024        28.34024
G21  24893576.43626    237772.82326      1536.91426        37.69826
G24  21443788.17425   -446776.01325     -2969.33125        31.05625
G28  24893085.37623    430506.60423      2854.16623        23.31423
G32  21886786.39327    133438.80927       857.55927        42.26227
R10  22970319.37924   -478651.15524     -3187.26324        28.49024
R02  20694699.15825    101632.61425       653.95825        31.44025
R18  22925671.58826    336421.29226      2170.12526        37.36626
R12  23241584.48624    484525.73824      3173.72824        26.08124
R11  21330233.08725     89049.24525       526.14225        32.13025
R24  21533692.63526   -720136.56426     -4737.61726        39.26026
R17  20540363.30226   -149496.60726     -1045.50426        35.54426
R08  23625221.99924   -588600.31224     -3972.47824        25.27224
E03  24534106.09224   -408624.63324     -2703.99624        24.92524
E07  26793275.50125    192435.86725      1264.90925        30.41425
E25  27723104.89423    129430.23823       858.56223        19.79323
> 2024 10 27 14 52 06.9996221  0 19                      
G08  25055079.42924   -377583.50324     -2487.60224        28.92824
G10  20872702.42925     83014.09725       521.99025        32.87725
G15  24500334.47124   -669734.37124     -4407.04024        28.68524
G21  24893104.26326    239310.79526      1538.91326        37.67126
G24  21444172.50824   -449744.62524     -2968.74124        29.33824
G28  24892364.37523    433359.84223      2853.95423        22.60623
G32  21886446.12926    134295.03326       856.85626        41.12126
R10  22970722.89924   -481838.21224     -3188.45624        28.49924
R02  20694400.86425    102287.01425       654.31925        32.64625
R18  22925088.49126    338590.23926      2167.37826        37.28226
R12  23240826.01124    487701.92124      3174.81324        27.49724
R11  21329950.38325     89575.09325       525.70425        32.57825
R24  21534388.15326   -724875.01426     -4739.93226        36.61526
R17  20540374.39526   -150543.24226     -1046.14226        35.70526
R08  23625778.41424   -592571.26024     -3971.73224        27.76524
E03  24534437.06324   -411328.35624     -2703.92624        24.67424
E07  26792855.79224    193700.99024      1265.10124        29.33324
E15  24910109.39024   -534957.75724     -3529.24924        23.63924
E25  27722762.53123    130289.44423       858.71323        20.01623
> 2024 10 27 14 52 07.9996215  0 19                      
G08  25055365.43124   -380070.99924     -2490.02224        25.94224
G10  20872422.42324     83534.94224       520.46924        29.48924
G15  24500991.91624   -674142.18824     -4412.16124        25.38824
G21  24892634.48826    240848.74626      1538.87426        36.11526
G24  21444547.84825   -452712.83425     -2966.76625        30.02225
G28  24891644.57323    436214.05923      2855.30623        21.44723
G32  21886101.36726    135152.00626       858.20126        38.93326
R10  22971124.62125   -485029.48225     -3188.31425        29.75325
R02  20694091.77825    102941.47525       654.98725        31.40725
R18  22924505.99526    340758.51526      2166.57626        35.75626
R12  23240052.24724    490879.10724      3177.75024        27.30424
R11  21329666.77925     90100.10225       524.32025        32.54425
R24  21535097.46226   -729614.00426     -4739.75226        35.89726
R17  20540385.18725   -151590.37625     -1046.82425        34.23225
R08  23626321.33824   -596543.65924     -3970.23224        26.91624
E03  24534767.73424   -414032.46224     -2704.00324        28.58524
E07  26792436.08224    194966.07324      1264.58924        25.24624
E15  24910602.54924   -538487.38224     -3529.61824        25.85224
E25  27722421.06723    131149.17523       858.87323        18.41823
> 2024 10 27 14 52 08.9996208  0 20                      
G08  25055630.14824   -382560.89224     -2490.79024        28.41424
G10  20872111.23825     84055.96725       520.05125        30.79125
G15  24501616.08424   -678555.14324     -4412.35724        26.52224
G18  23568602.89623   -728521.30023     -4764.77823        22.69923
G21  24892124.24126    242386.47526      1538.29726        37.91226
G24  21444909.99825   -455679.71325     -2965.67725        31.45925
G28  24890893.29324    439070.73024      2856.00024        23.82924
G32  21885728.72526    136008.04826       854.75026        40.60226
R10  22971517.34924   -488219.43924     -3187.02824        29.00824
R02  20693752.41325    103595.92525       654.16425        31.96425
R18  22923882.42626    342928.01526      2170.63926        35.67826
R12  23239233.81324    494057.06224      3181.72024        26.97424
R11  21329358.29325     90624.53925       523.64725        33.46325
R24  21535778.59126   -734352.26426     -4738.11026        36.71326
R17  20540367.20025   -152638.01625     -1046.91125        33.98125
R08  23626859.16624   -600515.40624     -3970.36224        26.72724
E03  24535069.02524   -416736.38324     -2703.61224        26.48024
E07  26791980.09824    196231.17024      1265.43724        26.29624
E15  24911065.42823   -542017.08123     -3529.84723        23.35823
E25  27722047.22623    132012.82523       858.15823        20.04223
> 2024 10 27 14 52 09.9996202  0 21                      
G08  25055926.34324   -385048.63424     -2487.94524        28.92924
G10  20871836.02925     84576.30325       519.92725        30.73325
G15  24502281.62324   -682968.43824     -4409.95224        26.85824
G18  23569336.78823   -733283.49923     -4763.23223        20.83923
G21  24891653.26726    243923.89126      1536.70726        37.82926
G24  21445297.33025   -458647.94325     -2967.26125        31.87625
G28  24890168.39523    441929.97223      2855.99823        21.82723
G32  21885387.56126    136864.31726       856.82926        40.85326
R10  22971946.65224   -491403.90524     -3185.78024        28.69624
R02  20693455.31925    104250.59325       654.41925        32.04625
R18  22923299.33026    345099.06826      2174.26726        35.55426
R12  23238468.14324    497236.30624      3180.72224        26.99324
R11  21329070.49225     91148.84525       524.05825        33.25525
R24  21536483.40326   -739090.55026     -4736.65326        36.48626
R17  20540389.38425   -153686.02825     -1047.43525        34.88825
R08  23627424.57424   -604488.93824     -3970.52724        27.20824
E02  28551061.51122     19554.63222      1631.21922        15.98022
E03  24535401.79524   -419439.75524     -2703.19424        25.01424
E07  26791559.19024    197496.97824      1265.78024        25.65324
E15  24911558.28724   -545547.31824     -3530.15724        23.87324
E25  27721704.86323    132870.95623       858.24423        19.49823
> 2024 10 27 14 52 10.9996195  0 20                      
G08  25056215.94324   -387533.08024     -2485.17024        26.75924
G10  20871556.32225     85097.53225       521.70925        30.62725
G15  24502925.87724   -687382.36424     -4408.15924        23.95424
G18  23570060.48723   -738047.42023     -4762.55123        22.08123
G21  24891184.39226    245461.22926      1536.59326        36.48326
G24  21445678.96525   -461614.99825     -2971.46325        30.79425
G28  24889441.99823    444787.93023      2856.00923        22.92923
G32  21885042.50026    137720.62526       856.76826        38.94226
R10  22972365.46224   -494588.59024     -3187.02024        28.27324
R02  20693141.73625    104905.56525       655.70725        31.03825
R18  22922712.33625    347269.72425      2172.52525        34.28225
R12  23237677.89024    500415.82924      3180.98024        25.46524
R11  21328798.28025     91672.83425       524.30125        32.85025
R24  21537192.71225   -743828.95225     -4736.15325        34.27825
R17  20540410.07025   -154735.40925     -1049.33625        33.50025
R08  23627990.28324   -608463.25224     -3969.92324        26.08024
E03  24535741.16024   -422143.00624     -2702.95624        24.87424
E07  26791141.27924    198762.65024      1265.90624        23.93524
E15  24912053.24424   -549078.00324     -3530.33724        25.24124
E25  27721363.39923    133729.55523       858.12223        17.70523
> 2024 10 27 14 52 11.9996189  0 20                      
G08  25056476.16324   -390018.04624     -2484.85624        28.07624
G10  20871248.73525     85618.65125       521.17625        31.50725
G15  24503558.43924   -691792.17324     -4405.89524        24.86724
G18  23570757.50423   -742812.07923     -4763.52423        22.25023
G21  24890681.34026    246998.58626      1537.03626        37.54726
G24  21446037.51725   -464584.13325     -2972.84325        30.97125
G28  24888690.11823    447646.15523      2855.63123        22.39923
G32  21884669.25926    138577.32526       857.46126        39.77526
R10  22972747.99724   -497782.92124     -3191.68724        28.57724
R02  20692805.36925    105561.06025       656.27025        31.92525
R18  22922107.65525    349439.02925      2170.12825        34.65725
R12  23236864.85324    503593.33124      3179.67124        25.43324
R11  21328486.19625     92196.56025       524.27825        31.47825
R24  21537860.94925   -748566.70425     -4737.08025        34.56825
R17  20540397.17925   -155785.62425     -1050.29225        34.66525
R08  23628520.01624   -612435.95524     -3974.33624        26.71324
E03  24536047.24823   -424846.07023     -2703.10023        23.49423
E07  26790692.19024    200028.58624      1265.97424        25.87724
E15  24912517.02324   -552609.28924     -3530.54824        24.92524
E25  27720994.65523    134587.90923       859.24423        19.70823
> 2024 10 27 14 52 12.9996183  0 19                      
G08  25056765.76224   -392505.87324     -2484.90024        27.53524
G10  20870972.02725     86139.75525       520.83525        31.69825
G15  24504223.07924   -696195.51924     -4400.51924        24.77224
G18  23571482.10323   -747576.11223     -4762.07623        21.48723
G21  24890207.66826    248535.67726      1536.77226        37.45626
G24  21446423.65025   -467554.99625     -2971.55225        31.67225
G28  24887967.61924    450506.03924      2856.60124        23.61724
G32  21884327.19626    139433.41726       855.91126        40.22626
R10  22973175.20224   -500974.87124     -3192.92724        27.69424
R02  20692511.27325    106216.31725       655.86525        32.56425
R18  22921521.26125    351606.63025      2166.30025        35.13525
R12  23236095.28624    506770.01124      3177.92024        25.65024
R11  21328206.19025     92719.98325       524.40825        31.05325
R24  21538575.35526   -753304.74326     -4738.22526        35.73326
R17  20540420.56325   -156835.92625     -1050.70825        35.14125
R08  23629079.72824   -616408.74124     -3971.60324        27.31024
E03  24536385.41423   -427549.34323     -2702.89923        23.12123
E07  26790269.78224    201294.24224      1265.83624        26.49624
E15  24913010.78224   -556139.74724     -3530.29724        25.95524
> 2024 10 27 14 52 13.9996177  0 20                      
G08  25057054.76224   -394992.74924     -2486.88324        28.03424
G10  20870684.82625     86662.40925       521.19525        29.99525
G15  24504880.22424   -700593.00424     -4404.68324        23.90524
G18  23572205.80123   -752342.20223     -4763.00223        22.81023
G21  24889730.09826    250072.27326      1535.71426        36.13126
G24  21446807.98425   -470525.24125     -2969.56325        31.69325
G28  24887241.52123    453367.49223      2857.60523        22.80923
G32  21883986.93126    140289.57926       856.13826        39.87726
R10  22973595.51124   -504165.06724     -3192.30824        27.34624
R02  20692216.87625    106870.70025       653.87225        33.13325
R18  22920924.37425    353773.34725      2165.14125        33.78425
R12  23235329.31623    509945.64323      3176.89023        22.89423
R11  21327908.79624     93242.13024       522.10324        29.47224
R24  21539286.16225   -758043.66625     -4739.47925        35.38525
R17  20540438.55025   -157886.90925     -1050.75225        35.21225
R08  23629646.33624   -620376.65124     -3970.54724        25.37524
E03  24536716.98424   -430252.53224     -2703.11824        25.29524
E07  26789848.27424    202560.30124      1266.03324        25.09724
E15  24913503.04124   -559670.06024     -3530.52924        26.80624
E25  27720315.62523    136304.61523       858.28223        18.10523
> 2024 10 27 14 52 14.9996170  0 20                      
G08  25057329.07225   -397481.70225     -2489.92625        30.03925
G10  20870374.54025     87182.23825       522.22525        31.69325
G15  24505503.19324   -704990.85124     -4401.59924        25.85024
G18  23572902.21923   -757109.71123     -4762.40223        21.24623
G21  24889233.04325    251609.90425      1537.50625        34.87125
G24  21447165.93625   -473495.01225     -2969.26825        32.25225
G28  24886486.04423    456229.12523      2857.40423        21.59623
G32  21883613.09026    141145.78726       856.23226        40.78026
R10  22973972.65024   -507355.38924     -3189.16124        27.81724
R02  20691895.49925    107525.19225       653.62325        34.67825
R18  22920310.09925    355939.83125      2165.68425        33.21625
R12  23234549.85623    513117.64523      3173.31723        20.85923
R11  21327600.60924     93762.96624       521.33024        25.70724
R24  21539965.49226   -762782.52726     -4739.32526        38.24226
R17  20540419.66325   -158938.03125     -1050.92625        35.29725
R08  23630153.28524   -624341.80324     -3968.98424        24.25724
E03  24537017.37624   -432955.57324     -2703.06224        26.68024
E07  26789402.78224    203826.46024      1266.27324        28.17924
E15  24913962.62324   -563200.40324     -3530.35124        23.80924
E25  27719937.58723    137163.46823       858.19623        17.93323
> 2024 10 27 14 52 15.9996164  0 20                      
G08  25057622.86925   -399970.25125     -2488.80125        29.51425
G10  20870099.93025     87703.96925       522.20025        34.73025
G15  24506170.83124   -709395.88124     -4405.57424        26.07224
G18  23573635.21224   -761870.49224     -4760.56824        26.62324
G21  24888759.07125    253147.79125      1537.93125        33.69625
G24  21447554.76725   -476465.49525     -2970.31925        30.29825
G28  24885761.44623    459088.84123      2857.16423        19.29423
G32  21883268.02927    142002.40127       856.90727        41.69327
R10  22974392.05924   -510547.99624     -3190.23924        27.83624
R02  20691590.91025    108179.73125       653.70625        33.93125
R18  22919721.60725    358106.96225      2167.14325        32.74225
R12  23233765.59923    516286.78123      3174.74123        23.44223
R11  21327332.89524     94285.74724       522.20224        24.11824
R24  21540663.70926   -767521.43826     -4739.68426        38.86526
R17  20540429.25725   -159990.29325     -1052.16325        33.55425
R08  23630703.70423   -628311.80223     -3969.35623        21.03923
E03  24537352.54425   -435658.51525     -2702.98525        29.50725
E07  26788982.47325    205092.64825      1266.53425        29.79825
E15  24914447.68723   -566724.12523     -3530.42423        21.07023
E25  27719582.63223    138021.55223       858.19023        18.14523
> 2024 10 27 14 52 16.9996158  0 21                      
G08  25057916.66525   -402458.88925     -2488.85225        29.99625
G10  20869820.22425     88225.64425       522.11825        34.91125
G15  24506827.37624   -713806.83724     -4408.24324        26.54624
G18  23574363.10824   -766629.59424     -4758.97924        26.65824
G21  24888287.49725    254685.89225      1538.54625        33.60725
G23  20464395.89423   -321036.90223     -2000.29823        23.24123
G24  21447937.60224   -479436.10624     -2970.23124        28.36424
G28  24885036.24823    461951.61823      2857.65823        19.36523
G32  21882926.86527    142859.41927       857.95827        41.55927
R10  22974811.76924   -513739.18724     -3191.23724        28.42024
R02  20691291.71725    108834.99225       654.74025        33.84625
R18  22919135.51325    360274.68525      2167.81125        32.26325
R12  23232986.73824    519463.78924      3175.05124        23.67624
R11  21327069.97724     94806.35324       518.93724        25.43724
R24  21541367.32226   -772260.32226     -4739.04026        39.46226
R17  20540449.34325   -161043.30825     -1054.03125        33.43125
R08  23631262.81723   -632283.46023     -3969.85823        20.93523
E03  24537688.01225   -438360.60525     -2702.28425        29.99825
E07  26788558.56725    206359.39525      1266.81625        31.03925
E15  24914943.54323   -570249.44123     -3529.96823        19.79223
E25  27719242.36823    138880.20623       858.55123        17.55823
> 2024 10 27 14 52 17.9996152  0 21                      
G08  25058214.65925   -404947.97325     -2490.58425        30.51925
G10  20869540.51825     88747.68825       521.52525        35.04125
G15  24507484.82124   -718216.05024     -4403.59324        25.36724
G18  23575088.90624   -771387.80724     -4755.29024        26.11824
G21  24887814.72425    256223.97125      1538.21225        33.29425
G23  20464601.85124   -323035.73124     -1997.97624        24.65424
G24  21448323.73424   -482406.77124     -2970.71024        27.32224
G28  24884312.84923    464810.37923      2858.82623        19.19723
G32  21882583.60327    143717.17527       858.61327        41.87427
R10  22975221.28524   -516931.08124     -3193.04524        28.29624
R02  20690983.23025    109490.95725       656.36925        34.01025
R18  22918551.51725    362442.01225      2167.35125        32.94325
R12  23232212.37424    522644.01924      3176.30924        23.62424
R11  21326767.48624     95328.07224       518.14224        23.50724
R24  21542071.23426   -776998.94626     -4738.23626        39.76926
R17  20540473.62625   -162096.57925     -1053.92225        34.13825
R08  23631822.23023   -636257.01323     -3970.48623        20.67923
E03  24538021.98125   -441062.51025     -2701.60825        30.45525
E07  26788133.76125    207626.36725      1267.12825        30.43125
E15  24915435.20322   -573778.97222     -3529.68222        16.37022
E25  27718897.00722    139738.74222       858.54022        16.69822
> 2024 10 27 14 52 18.9996145  0 21                      
G08  25058473.97924   -407436.73224     -2489.15824        29.23324
G10  20869233.83025     89269.37725       521.65525        35.00025
G15  24508115.58524   -722621.19624     -4400.88724        25.19224
G18  23575776.62924   -776146.75624     -4758.98824        25.23424
G21  24887310.77325    257761.96725      1536.88725        32.20125
G23  20464784.42524   -325034.73724     -1998.31524        23.99824
G24  21448677.19024   -485375.17724     -2970.81724        26.31424
G28  24883557.67122    467671.18122      2858.47522        17.27022
G32  21882207.96327    144574.24127       855.92427        41.56627
R10  22975590.33024   -520122.92024     -3191.72824        27.69024
R02  20690650.46125    110147.33025       657.09125        33.16425
R18  22917933.04525    364609.04125      2166.69925        32.52625
R12  23231405.33324    525822.80224      3176.78224        24.01224
R11  21326448.50724     95849.66024       520.56624        25.18424
R24  21542739.17226   -781737.12326     -4737.61926        38.79526
R17  20540455.93825   -163150.21425     -1053.93025        33.70325
R08  23632357.06023   -640232.82823     -3970.50023        23.41023
E03  24538326.87025   -443763.21725     -2700.99725        29.79425
E07  26787686.17125    208894.37425      1267.53725        29.96925
E15  24915896.28423   -577318.43123     -3528.97323        21.12823
E25  27718518.66922    140597.94422       859.52922        16.69922
> 2024 10 27 14 52 19.9996139  0 21                      
G08  25058771.37425   -409924.57525     -2488.56625        29.93425
G10  20868949.62725     89791.60825       522.44225        33.14025
G15  24508769.13224   -727023.68324     -4401.56524        25.64024
G18  23576496.43123   -780905.28823     -4767.01623        21.66223
G21  24886837.70125    259300.15925      1537.22925        31.83625
G23  20464978.39024   -327030.52124     -1999.09724        25.46924
G24  21449060.92425   -488345.83025     -2970.68625        32.83525
G28  24882828.57624    470531.28324      2859.53924        23.79024
G32  21881868.29826    145431.21426       856.42726        40.77426
R10  22976005.84224   -523314.74124     -3192.17124        27.92624
R02  20690335.67925    110804.13625       657.99825        33.57725
R18  22917346.65125    366775.51725      2165.22625        34.01525
R12  23230626.47223    529000.28723      3177.14023        20.14923
R11  21326184.98924     96370.08324       522.35224        27.27924
R24  21543448.48126   -786475.90926     -4739.76526        39.22426
R17  20540478.42325   -164204.61825     -1055.29925        34.97325
R08  23632938.05724   -644201.93724     -3969.48924        25.77224
E03  24538657.54124   -446463.95724     -2700.54024        28.65824
E07  26787261.36524    210162.33424      1267.90724        27.28724
E15  24916389.44324   -580847.10424     -3529.34624        27.17524
E25  27718167.01223    141457.58723       859.58623        17.69423
> 2024 10 27 14 52 20.9996133  0 21                      
G08  25059065.47025   -412412.81525     -2489.62425        30.07025
G10  20868674.71725     90314.29225       522.33725        32.71225
G15  24509422.38024   -731426.23124     -4402.16324        25.52624
G18  23577225.82623   -785674.33723     -4767.03423        19.77323
G21  24886364.62825    260838.72225      1538.81925        31.97925
G23  20465181.94924   -329031.35124     -2004.43024        23.84024
G24  21449445.25825   -491316.89025     -2971.08425        32.69325
G28  24882101.58023    473393.46023      2860.27723        21.23423
G32  21881522.93726    146289.01326       858.29126        40.57126
R10  22976437.84324   -526507.32724     -3193.32124        28.71324
R02  20690019.39825    111461.13725       658.22725        31.39525
R18  22916761.45625    368942.27025      2165.75825        34.19725
R12  23229849.11023    532178.18623      3176.97923        19.24523
R11  21325886.09624     96889.86524       523.56624        26.27224
R24  21544146.69826   -791214.35926     -4738.73226        38.14326
R17  20540504.20526   -165259.30226     -1055.20026        35.78326
R08  23633516.35724   -648171.00324     -3966.59824        26.31724
E03  24538989.41124   -449164.55224     -2699.93524        26.59824
E07  26786837.15924    211430.81324      1268.56324        27.49024
E15  24916879.90324   -584376.67224     -3529.44924        26.92324
E25  27717819.25323    142316.26423       858.53123        18.76723
> 2024 10 27 14 52 21.9996126  0 21                      
G08  25059322.39225   -414901.01925     -2489.25925        31.86525
G10  20868363.83225     90836.94925       522.69725        33.53925
G15  24510054.04324   -735828.38324     -4401.22524        27.37224
G18  23577921.04523   -790441.86323     -4764.81923        23.16723
G21  24885862.77625    262378.20825      1540.29025        33.48725
G23  20465358.82724   -331032.50024     -2004.11424        23.69824
G24  21449796.91525   -494287.89425     -2970.44225        32.45125
G28  24881347.00223    476258.53123      2859.91623        18.07723
G32  21881153.59326    147146.86326       858.12826        41.41526
R10  22976850.65724   -529700.09524     -3194.45224        26.12124
R02  20689681.83125    112118.04225       657.25525        31.75825
R18  22916148.08125    371109.13225      2166.57825        34.17525
R12  23229032.47523    535358.23223      3178.70723        18.12923
R11  21325577.31024     97411.29124       523.58224        26.76724
R24  21544832.92326   -795952.13426     -4736.82626        39.15626
R17  20540482.92026   -166314.16326     -1054.98626        35.99926
R08  23634044.29224   -652136.99524     -3964.45324        25.80524
E03  24539295.19924   -451864.05124     -2699.34024        25.58924
E07  26786382.97324    212700.30224      1269.23424        28.42524
E15  24917342.18324   -587906.00524     -3529.51424        25.08024
E25  27717445.41223    143174.76523       858.55123        18.30823
> 2024 10 27 14 52 22.9996120  0 20                      
G08  25059617.98725   -417389.34825     -2488.35025        32.82925
G10  20868086.82425     91359.61625       522.74325        33.42225
G15  24510709.38924   -740229.89724     -4399.79924        28.40824
G18  23578648.94123   -795210.34023     -4764.14023        19.15423
G21  24885387.60525    263917.51625      1539.73925        31.89225
G23  20465551.59324   -333030.76824     -1999.07124        28.69524
G24  21450180.94925   -497259.43525     -2971.38125        29.92025
G28  24880623.30323    479118.73823      2859.79523        19.96923
G32  21880807.33226    148004.28726       857.25426        40.50226
R10  22977271.56624   -532893.27724     -3193.66824        28.13924
R02  20689397.02825    112774.59325       656.35025        33.33325
R18  22915555.39125    373276.10325      2167.62325        34.63525
R11  21325294.00624     97934.58024       523.79424        24.90624
R24  21545542.23126   -800688.82226     -4733.86826        38.66726
R17  20540503.30525   -167369.68825     -1055.14625        35.35325
R08  23634562.03324   -656100.55224     -3963.85724        25.73524
E03  24539629.46825   -454563.52725     -2699.48625        29.54025
E07  26785960.56524    213969.82624      1269.76224        26.58224
E15  24917839.23924   -591434.51224     -3529.18624        26.48524
E25  27717100.65023    144034.18723       859.51823        17.73423
> 2024 10 27 14 52 23.9996114  0 20                      
G08  25059914.18225   -419877.92625     -2488.44325        31.53125
G10  20867805.31925     91881.83225       523.03125        33.72825
G15  24511367.43324   -744631.85724     -4401.83424        27.72524
G18  23579375.63822   -799979.24822     -4763.26422        17.44422
G21  24884910.93525    265455.61125      1537.35225        30.57025
G23  20465747.95824   -335030.81624     -1999.37924        27.94924
G24  21450564.38324   -500232.38724     -2973.05824        28.33024
G28  24879894.50723    481981.73823      2859.44623        21.34423
G32  21880463.47026    148861.66826       857.04826        40.56726
R10  22977687.37824   -536086.45424     -3191.87224        28.29324
R02  20689086.74325    113430.85425       655.83825        31.94225
R18  22914973.49425    375442.73725      2167.16325        33.97625
R11  21325017.59824     98456.65424       518.30524        28.22924
R24  21546246.74426   -805427.58526     -4739.92926        38.05326
R17  20540512.89925   -168425.84125     -1055.73725        33.88725
R08  23635113.35224   -660063.94324     -3966.43024        25.53624
E03  24539964.03625   -457263.42625     -2699.78925        29.63525
E07  26785539.65724    215239.25124      1269.80424        26.62124
E15  24918329.40024   -594967.34224     -3528.77624        24.32024
E25  27716754.09023    144893.82823       859.51223        18.12923
> 2024 10 27 14 52 24.9996108  0 20                      
G08  25060206.18025   -422367.06625     -2488.80825        31.66125
G10  20867524.71325     92403.29425       521.24125        33.80125
G15  24512023.97924   -749034.41524     -4402.33124        26.48724
G18  23580099.63723   -804743.20123     -4764.27923        17.95123
G21  24884444.15825    266992.60525      1535.83125        31.18525
G23  20465943.72224   -337029.81224     -2002.12324        28.07924
G24  21450953.51424   -503205.75124     -2973.81724        28.92124
G28  24879166.31223    484842.97223      2861.40223        18.79523
G32  21880119.90826    149718.03326       855.28826        39.89526
R10  22978089.99924   -539280.61224     -3194.35524        27.98624
R02  20688781.55525    114086.21225       654.41925        31.28725
R18  22914384.70225    377608.00925      2165.64725        33.61225
R11  21324810.14124     98973.35524       515.09724        27.84324
R24  21546948.55826   -810168.51326     -4742.03626        38.45326
R17  20540525.79025   -169482.79725     -1055.55825        33.01425
R08  23635691.95124   -664029.51624     -3969.25024        25.55924
E03  24540300.40425   -459963.75825     -2700.29525        30.94925
E07  26785116.94924    216507.89424      1269.17424        26.31324
E15  24918818.96123   -598507.24023     -3528.89023        23.35123
E25  27716408.43022    145753.42422       859.51222        17.47922
> 2024 10 27 14 52 25.9996100  0 21                      
G08  25060472.39625   -424856.91725     -2490.44225        32.24225
G10  20867218.92526     92924.36526       520.46226        35.57626
G15  24512656.54124   -753437.44024     -4403.37424        27.55324
G18  23580798.15323   -809507.11723     -4764.44523        21.12323
G21  24883941.10625    268529.50425      1536.74525        32.76725
G23  20466112.20524   -339028.73124     -2002.97624        28.46624
G24  21451309.96725   -506179.32925     -2972.79925        29.77725
G28  24878414.73223    487700.18623      2858.72223        21.95423
G32  21879744.56826    150574.95826       857.56726        39.64326
R10  22978483.92724   -542476.94524     -3198.28024        27.09024
R02  20688446.08725    114741.14725       654.82925        32.13525
R18  22913767.72925    379772.44225      2164.25825        33.97825
R12  23225786.02322    548073.05822      3179.16322        16.76022
R11  21324592.49224     99489.00424       514.64524        27.47624
R24  21547621.59226   -814909.79126     -4742.97626        39.05426
R17  20540508.40225   -170540.61725     -1057.03025        31.96525
R08  23636247.46624   -668001.23424     -3971.40724        25.87524
E03  24540604.99325   -462664.57825     -2700.87825        32.38725
E07  26784667.86024    217775.87424      1268.27624        27.12724
E15  24919292.63323   -602044.29323     -3530.09623        21.22023
E25  27716025.59522    146611.91422       859.51222        17.16722
> 2024 10 27 14 52 26.9996095  0 20                      
G08  25060764.69425   -427347.17225     -2490.16225        31.65025
G10  20866941.01725     93444.69025       520.28325        35.31125
G15  24513317.58324   -757840.18024     -4402.54024        27.48024
G18  23581526.64923   -814270.27923     -4762.55423        21.18223
G21  24883469.53325    270066.48125      1537.30725        33.25625
G23  20466318.46324   -341029.13724     -2003.66924        29.12624
G24  21451697.59924   -509152.96324     -2972.56224        29.31824
G28  24877691.33323    490555.66323      2859.92223        20.27123
G32  21879403.10426    151431.61026       857.90926        38.68226
R10  22978903.33624   -545674.52324     -3199.95624        27.60824
R02  20688145.99525    115396.31025       655.80525        32.14225
R18  22913190.32825    381935.86425      2163.19425        35.07425
R11  21324241.73524    100004.30324       515.60324        27.36324
R24  21548338.99526   -819650.40626     -4739.62626        39.84426
R17  20540525.49025   -171599.96025     -1058.75525        32.23325
R08  23636796.38624   -671977.51724     -3970.55724        24.40024
E03  24540939.56125   -465365.68425     -2701.42825        32.34325
E07  26784248.15124    219043.44224      1267.09524        26.66724
E15  24919783.69323   -605578.11923     -3530.47723        21.38223
E25  27715674.53822    147470.45122       858.53622        16.49222
> 2024 10 27 14 52 27.9996089  0 20                      
G08  25061058.49025   -429837.27425     -2489.05125        32.43025
G10  20866664.30926     93965.04926       520.32526        35.82126
G15  24513966.93424   -762242.76224     -4402.89424        27.41124
G18  23582251.54723   -819033.47823     -4763.14723        22.13223
G21  24882995.56125    271603.71325      1537.75725        33.98725
G23  20466525.91925   -343031.98525     -2002.45725        29.54725
G24  21452084.93124   -512127.00224     -2973.30924        28.69524
G28  24876967.93323    493410.15923      2859.54223        20.26823
G32  21879060.74126    152288.20626       857.23426        38.93326
R10  22979325.74424   -548872.85624     -3200.42424        26.62224
R02  20687833.91125    116051.65925       655.78625        31.74025
R18  22912610.23025    384098.78625      2162.08225        35.31725
R11  21323947.63824    100520.27224       514.72324        26.97024
R24  21549050.40326   -824390.37126     -4737.62626        40.09926
R17  20540552.17225   -172660.47925     -1061.53625        32.40225
R08  23637375.58524   -675948.43424     -3966.51024        24.74424
E03  24541273.53025   -468066.77625     -2701.74725        32.97325
E07  26783826.64324    220311.19124      1266.43924        27.43624
E15  24920275.65223   -609113.97623     -3530.94023        20.05523
E25  27715327.37822    148329.06522       858.53622        16.18622
> 2024 10 27 14 52 28.9996083  0 19                      
G08  25061349.58925   -432327.41125     -2489.23425        32.36825
G10  20866386.70126     94485.36126       520.23426        35.99926
G15  24514631.57424   -766645.34824     -4402.26524        27.02624
G18  23582974.94623   -823796.20723     -4761.91323        20.63023
G21  24882518.59125    273140.44625      1536.62225        34.30525
G23  20466729.17824   -345034.09224     -2001.65224        28.61324
G24  21452472.86224   -515102.65824     -2975.40724        28.91224
G28  24876240.63723    496263.18223      2859.23123        20.69923
G32  21878713.28226    153143.70826       855.45426        38.84126
R10  22979726.26724   -552070.35724     -3196.40724        26.72924
R02  20687529.02225    116707.14425       656.29525        31.35725
R18  22912025.03525    386261.52525      2162.19825        35.17125
R11  21323663.13524    101035.61124       516.57024        27.96724
R24  21549753.11626   -829131.28026     -4740.75926        39.72126
R17  20540566.86125   -173722.90525     -1063.58825        32.70725
R08  23637930.80124   -679914.16524     -3962.61024        25.38324
E03  24541606.59925   -470767.85725     -2701.73525        32.05825
E07  26783407.83324    221577.95824      1266.28524        27.92724
E15  24920767.61222   -612652.24022     -3531.65122        17.44822
> 2024 10 27 14 52 29.9996076  0 19                      
G08  25061615.50525   -434818.51625     -2490.85725        32.33525
G10  20866079.11426     95005.30526       519.88126        35.68926
G15  24515263.23624   -771047.45224     -4401.00524        27.15624
G18  23583671.96423   -828557.25523     -4762.46723        21.74423
G21  24882018.23725    274676.04325      1535.15125        34.45125
G23  20466908.15424   -347036.88724     -2002.01724        29.16324
G24  21452834.41224   -518079.59724     -2978.35224        28.88524
G28  24875483.96123    499124.41323      2862.21323        21.10923
G32  21878342.73826    153999.36626       856.00226        38.58526
R10  22980121.09324   -555267.42024     -3196.01124        26.77024
R02  20687204.34625    117362.34125       655.96225        30.62425
R18  22911411.96025    388423.84025      2162.10725        35.37025
R11  21323338.46024    101548.99824       513.20424        27.67624
R24  21550423.15226   -833873.72326     -4743.35226        39.80426
R17  20540553.67125   -174785.71725     -1063.60825        32.70125
R08  23638459.03524   -683879.97624     -3964.52524        24.17924
E03  24541908.49025   -473469.73425     -2701.88625        32.06525
E07  26782957.54424    222845.21224      1266.70724        26.89324
E15  24921230.79122   -616192.23522     -3530.76122        17.14822
> 2024 10 27 14 52 30.9996070  0 19                      
G08  25061909.00125   -437310.66125     -2492.19425        31.76625
G10  20865798.80825     95524.76825       519.60925        34.72925
G15  24515914.68524   -775445.68024     -4401.31824        27.11224
G18  23584393.86423   -833317.98023     -4763.04923        21.73623
G21  24881547.26325    276211.04025      1534.70625        33.60525
G23  20467103.61924   -349041.23124     -2003.91424        28.43524
G24  21453213.05024   -521057.89824     -2980.90624        28.00124
G28  24874758.16323    501988.61023      2862.83323        20.50623
G32  21878000.67526    154854.13226       854.18826        37.84026
R10  22980566.28524   -558465.99024     -3199.20124        28.54624
R02  20686907.85224    118016.54224       654.52124        29.23624
R18  22910824.06725    390585.17125      2161.11625        35.14925
R11  21323079.43925    102060.72525       510.76525        29.56425
R24  21551127.36526   -838617.35626     -4745.01826        39.21426
R17  20540563.26425   -175849.45025     -1063.92425        32.08525
R08  23639022.34524   -687848.63424     -3963.79524        25.40124
E03  24542243.95825   -476171.27125     -2701.88225        30.80725
E07  26782531.53924    224112.62524      1267.07224        26.93024
E15  24921722.15123   -619734.27523     -3531.38323        20.45423
> 2024 10 27 14 52 31.9996064  0 19                      
G08  25062202.79825   -439803.12625     -2493.20225        32.61425
G10  20865516.40425     96043.61825       518.62425        35.42625
G15  24516567.93324   -779849.04124     -4404.07424        26.99924
G18  23585120.56123   -838079.54323     -4762.89423        23.11823
G21  24881074.79025    277745.78225      1534.06025        34.95425
G23  20467300.28324   -351046.41924     -2005.50624        28.79724
G24  21453600.38224   -524036.23124     -2978.69924        28.06924
G28  24874032.66623    504854.18023      2861.49723        23.37423
G32  21877658.31226    155708.01126       853.18826        36.83326
R10  22980997.08724   -561666.86924     -3202.69424        26.54124
R02  20686602.96325    118670.01425       652.33825        30.04725
R18  22910230.17826    392745.77426      2160.15526        35.61426
R11  21322806.62824    102572.38224       511.41624        29.44024
R24  21551835.77526   -843360.74626     -4744.21726        39.91926
R17  20540574.05625   -176913.65225     -1063.20225        32.38625
R08  23639578.46024   -691813.17224     -3965.27624        23.64224
E03  24542577.62725   -478872.92125     -2701.77125        30.70125
E07  26782112.72924    225379.98524      1267.13824        27.70324
E15  24922214.11023   -623278.42923     -3530.71023        19.50023
> 2024 10 27 14 52 32.9996057  0 19                      
G08  25062469.61325   -442296.14725     -2493.52325        32.91425
G10  20865205.81925     96561.92725       517.88125        35.32425
G15  24517195.99824   -784252.44624     -4403.61224        26.36424
G18  23585816.97923   -842841.17823     -4762.86623        20.53923
G21  24880569.34025    279280.58525      1534.40525        34.93825
G23  20467472.66424   -353051.71524     -2005.34124        28.56724
G24  21453957.43424   -527014.75424     -2979.03824        28.41024
G28  24873277.48823    507719.96123      2861.82723        21.60723
G32  21877276.97626    156561.78226       852.34026        37.50826
R10  22981369.12924   -564869.31024     -3205.28424        28.91824
R02  20686271.99225    119323.47525       653.53925        30.40525
R18  22909620.10026    394906.01826      2160.16026        36.25126
R11  21322515.23025    103083.08025       510.03925        31.51425
R24  21552518.70226   -848103.57626     -4742.47926        40.52126
R17  20540568.06125   -177978.31525     -1064.42425        33.43725
R08  23640108.79324   -695777.36624     -3964.20224        24.75224
E03  24542880.11825   -481574.19225     -2701.53325        30.92125
E07  26781662.14124    226646.78524      1267.21624        27.91124
E15  24922679.08823   -626819.31523     -3531.49923        21.07623
> 2024 10 27 14 52 33.9996051  0 19                      
G08  25062763.11025   -444789.25425     -2493.10625        33.45325
G10  20864926.41226     97080.18926       517.69526        35.80226
G15  24517857.94024   -788655.33024     -4403.53624        26.98324
G18  23586543.37623   -847602.47023     -4761.32223        22.23023
G21  24880098.66626    280815.13026      1534.44426        35.72326
G23  20467669.92724   -355056.90524     -2004.83024        29.32124
G24  21454340.26924   -529993.66924     -2979.34024        27.85924
G28  24872551.69123    510581.90823      2862.62323        22.73123
G32  21876939.71026    157415.24326       853.55326        37.88126
R10  22981773.84924   -568071.78524     -3204.78324        28.39224
R02  20685979.69425    119977.12625       654.59025        30.99725
R18  22909031.00826    397066.22726      2160.83826        35.99326
R11  21322233.72525    103592.76625       508.95025        31.09925
R24  21553225.31326   -852848.04326     -4745.50826        40.42626
R17  20540596.84125   -179044.27225     -1066.21125        34.40425
R08  23640678.09923   -699745.02123     -3965.38923        23.01123
E03  24543218.28425   -484276.49625     -2701.78625        31.61325
E07  26781240.33324    227916.70924      1267.18324        27.38124
E15  24923168.35023   -630351.58023     -3532.28423        21.25123
> 2024 10 27 14 52 34.9996045  0 19                      
G08  25063058.70625   -447282.24825     -2492.69725        31.84025
G10  20864643.70825     97598.04025       517.33925        33.86925
G15  24518513.28624   -793054.37224     -4403.79524        25.59124
G18  23587266.47523   -852361.98623     -4760.37723        22.68123
G21  24879626.79325    282349.84725      1534.49025        34.29325
G23  20467872.58724   -357062.78924     -2005.46524        29.04924
G24  21454725.20324   -532973.77424     -2981.33024        27.33124
G28  24871831.28923    513443.22023      2861.74423        22.40223
G32  21876592.55026    158268.83426       853.38526        36.71026
R10  22982212.44524   -571274.05524     -3203.13724        28.80824
R02  20685680.20224    120631.35124       655.39624        29.45624
R18  22908452.10925    399225.75825      2160.01625        35.32925
R11  21321947.42325    104101.41325       507.18125        30.87125
R24  21553933.12326   -857592.46926     -4745.19926        39.53226
R17  20540622.92325   -180111.45425     -1067.10825        34.19225
R08  23641237.81223   -703709.21023     -3965.84923        21.18323
E03  24543552.85225   -486978.49525     -2701.87725        29.50525
E07  26780818.52524    229188.88224      1266.71724        27.58924
E15  24923660.30923   -633883.79023     -3531.99123        20.59223
> 2024 10 27 14 52 35.9996039  0 19                      
G08  25063352.20225   -449775.38025     -2492.46625        32.35525
G10  20864362.20325     98116.27825       517.91625        33.54425
G15  24519175.82824   -797458.20524     -4403.27124        26.08024
G18  23587992.27324   -857119.45424     -4760.60724        24.66224
G21  24879157.01825    283884.17425      1533.55525        34.85125
G23  20468076.44625   -359069.06325     -2006.68525        30.07225
G24  21455109.23724   -535953.39024     -2979.10324        27.91624
G28  24871105.79223    516304.98223      2861.67823        22.82723
G32  21876253.18526    159122.34226       852.49826        36.85026
