     4.01           OBSERVATION DATA    M                   RINEX VERSION / TYPE
GnssLogger          Google 14           20241027 154737 UTC PGM / RUN BY / DATE
Google GnssLogger                                           MARKER NAME
Unknown                                                     MARKER NUMBER
Unknown             Unknown                                 OBSERVER / AGENCY
Unknown             GnssLogger          v3.1.0.3            REC # / TYPE / VERS
Unknown             Unknown                                 ANT # / TYPE
        0.0000        0.0000        0.0000                  ANTENNA: DELTA H/E/N
G    4 C1C L1C D1C S1C                                      SYS / # / OBS TYPES
R    4 C1C L1C D1C S1C                                      SYS / # / OBS TYPES
E    4 C1C L1C D1C S1C                                      SYS / # / OBS TYPES
  2024    10    27    15    47   37.0000000     GPS         TIME OF FIRST OBS
 7 R01  1 R02 -4 R03  5 R11  0 R12 -1 R17  4 R18 -3         GLONASS SLOT / FRQ #
Google Pixel 6a (Android 14) HW Year: 2020 HW Model:        COMMENT
Broadcom, BCM4776, GLL ver. 154.20.24 587347                COMMENT
                                                            END OF HEADER
> 2024 10 27 15 47 37.9774381  0 3                      
G10  20305786.49705     -7945.26905      -806.80205        34.68405
G25  23480529.26804     18402.86904      2083.59604        27.82204
G32  21019102.17805      -896.73205       -84.67205        30.71405
> 2024 10 27 15 47 38.9774375  0 19                      
G02  24912653.12923     11040.66423      1258.02023        17.98423
G10  20305761.91405     -8752.18005      -807.62605        33.90405
G12  23690728.75022      6376.35622       648.58522        16.44522
G21  23700725.62924      1413.54324       145.67024        24.82224
G23  21559687.93922    -33576.44822     -3410.83422        17.29922
G24  23230108.13123    -24826.37623     -4436.13823        21.48923
G25  23479950.36914     20486.20414      2083.04314        27.01514
G28  22593236.22823     24641.14623      2270.38823        22.71123
G32  21018943.58805      -981.15405       -84.13905        31.36905
R02  19928175.71124     -2206.33424      -213.31324        27.09624
R18  21688433.81024     -3816.22324      -385.80524        26.87924
R12  20911829.84125     16965.56725      1986.95225        32.28425
R11  21279518.39623    -21904.33123     -2392.30023        21.66223
R01  20879257.99024    -20781.39524     -2912.23424        27.25724
R17  21475377.00625    -36690.90325     -3789.24325        31.10325
E08  23495586.34424    -11504.18024     -1179.75824        25.20724
E13  24314237.70324    -31339.08424     -2385.23124        25.32124
E25  26916064.49624     -3192.26724      -374.14624        23.70724
E26  25860417.60524      5440.80024       487.20624        23.63824
> 2024 10 27 15 47 39.9774369  0 19                      
G02  24912251.70723     12294.83323      1256.68523        17.62723
G10  20305735.53205     -9560.23405      -808.86305        33.19405
G12  23690413.36822      7026.30722       648.63622        15.71122
G21  23700525.96714      1554.83514       143.39314        25.68014
G23  21560160.41222    -36978.41522     -3408.93722        17.21122
G24  23230772.47123    -29259.92323     -4440.06123        21.39823
G25  23479381.96214     22568.74314      2082.24614        27.34314
G28  22592622.85324     26916.26524      2268.44424        23.74824
G32  21018781.10105     -1066.65505       -86.61005        30.60905
R02  19928018.02014     -2423.43514      -218.53414        27.13914
R18  21688328.88214     -4202.39114      -387.90114        27.01514
R12  20911279.72225     18951.38625      1984.34125        31.29825
R11  21279782.51323    -24295.42823     -2395.14523        22.82723
R01  20879633.63024    -23696.79624     -2914.38024        27.41924
R17  21475903.44125    -40480.87125     -3791.27525        30.08725
E08  23495633.71124    -12682.63924     -1182.30724        25.22624
E13  24314516.51014    -33726.61514     -2389.32514        24.23414
E25  26915956.87124     -3567.70224      -377.15024        23.52824
E26  25860142.69624      5926.70124       483.45124        23.51624
> 2024 10 27 15 47 41.0004362  0 19                      
G02  24911802.01822     13608.29122      1255.53722        17.30822
G10  20305680.67005    -10388.90505      -810.55605        33.25905
G21  23700300.22424      1697.33024       135.60024        26.37324
G23  21560615.79622    -40469.45722     -3408.77722        16.93722
G24  23231426.91823    -33799.75023     -4442.54923        22.74523
G25  23478760.79204     24697.34104      2080.80904        27.14404
G28  22591970.80423     29236.10323      2268.23523        23.46123
G32  21018589.23305     -1155.85905       -88.13505        31.05805
R02  19927834.54714     -2647.04014      -218.08414        26.74214
R18  21688159.50024     -4599.48824      -389.73324        26.52324
R12  20910694.52725     20980.94225      1983.30525        31.13325
R11  21280032.54024    -26752.27924     -2395.11824        24.17824
R01  20879961.00424    -26681.09324     -2918.26124        27.91324
R17  21476421.18325    -44360.11925     -3792.95325        30.06125
E03  25727460.25024     -9000.56624     -2979.43624        29.08724
E08  23495657.39524    -13887.09724     -1182.38924        25.40124
E13  24314772.23324    -36170.61324     -2389.74924        24.40224
E25  26915821.36524     -3954.16424      -377.73224        23.54924
E26  25859838.70623      6421.28623       483.36123        23.09423
> 2024 10 27 15 47 42.0004356  0 21                      
G02  24911370.31722     14857.96222      1253.78022        17.49422
G10  20305653.98805    -11199.35805      -810.37905        32.16405
G12  23689762.51922      8350.20322       648.78122        17.30522
G21  23700083.17414      1836.16214       136.58014        26.10014
G24  23232090.95823    -38239.09423     -4442.32023        23.34523
G25  23478179.79414     26777.84514      2081.88214        25.44414
G28  22591358.02814     31506.78214      2268.40314        25.04614
G32  21018421.35005     -1243.25905       -86.94905        30.74805
R02  19927729.02024     -2865.96024      -218.08124        26.18224
R18  21688043.78024     -4988.84124      -389.77824        27.16724
R12  20910124.62225     22964.15025      1983.49525        31.86325
R11  21280303.85224    -29147.29324     -2394.77224        24.61424
R01  20880338.14324    -29598.43624     -2917.56224        27.65624
R17  21476963.20824    -48152.82924     -3793.00124        29.38124
R03  22728781.39223      7370.15023      1832.82623        22.05423
E02  26885610.97924      6101.98524      1516.76024        23.67224
E08  23495705.96124    -15063.19324     -1182.29624        25.65324
E13  24315042.04724    -38561.02924     -2389.83024        24.57824
E15  26770356.06823    -16810.36523     -4178.64023        20.59423
E25  26915712.84024     -4332.09924      -377.71924        24.24324
E26  25859566.79423      6904.74723       483.42023        22.75523
> 2024 10 27 15 47 43.0004350  0 22                      
G02  24910935.31823     16112.83323      1254.23223        17.50423
G10  20305629.70505    -12009.43405      -809.99405        32.44005
G12  23689472.32023      8994.66123       646.82923        19.39723
G21  23699874.21824      1975.45024       136.70424        25.41824
G24  23232754.39923    -42677.94423     -4441.09323        23.33923
G25  23477612.88724     28859.81924      2082.75624        24.75524
G28  22590744.05324     33777.02624      2270.82124        26.08424
G32  21018260.66105     -1330.08005       -86.66905        30.51705
R02  19927542.25014     -3084.16314      -216.85614        23.77414
R18  21687940.95114     -5377.93014      -388.68114        26.88414
R12  20909582.59725     24947.62725      1983.34125        32.50225
R11  21280572.46614    -31542.07014     -2395.16814        26.17814
R01  20880701.19124    -32515.14024     -2915.51424        27.83824
R17  21477474.35425    -51945.08125     -3791.70325        30.01225
R03  22728247.76123      9202.82423      1831.36423        21.74223
E02  26885146.30123      7619.42523      1515.02723        21.11723
E03  25728255.59913    -14967.40613     -2978.99513        22.60813
E08  23495760.82324    -16241.52324     -1181.42324        27.29424
E13  24315316.05723    -40950.26923     -2389.58223        23.03723
E15  26770987.73113    -20988.80313     -4178.79413        20.09913
E25  26915604.01524     -4709.47524      -377.18524        24.93124
E26  25859295.48213      7388.92513       484.33113        23.26313
> 2024 10 27 15 47 44.0004344  0 22                      
G02  24910514.11022     17368.44522      1253.65822        17.47822
G10  20305604.52305    -12819.13205      -810.14705        32.11505
G12  23689160.53523      9644.61223       647.74323        22.61323
G21  23699665.26324      2114.94424       135.98124        24.06924
G24  23233419.63823    -47117.34623     -4441.40623        22.54223
G25  23477034.58724     30941.68024      2080.58724        25.71424
G28  22590127.08014     36047.75714      2267.06514        25.69314
G32  21018091.27805     -1416.31305       -86.73505        29.50605
R02  19927414.23823     -3304.75723      -215.48023        23.10723
R18  21687842.91914     -5767.07114      -387.46614        26.39414
R12  20909037.87425     26931.35125      1983.38425        32.14425
R11  21280809.30224    -33936.64524     -2391.22424        25.90424
R01  20881068.13724    -35431.13924     -2916.25924        27.78624
R17  21478002.28824    -55737.17224     -3792.07124        29.41424
R03  22727752.20523     11034.46323      1831.36423        21.20423
E02  26884675.62623      9135.61723      1514.85123        18.51423
E03  25728643.83123    -17958.94423     -2978.85523        22.16023
E08  23495794.10014    -17421.84814     -1180.28414        27.66614
E13  24315599.96024    -43338.80024     -2388.52424        24.06724
E15  26771574.12523    -25168.74723     -4180.43023        19.38823
E25  26915493.99114     -5086.38014      -376.72014        24.22614
E26  25859019.67313      7873.41413       484.70213        22.46013
> 2024 10 27 15 47 45.0004338  0 21                      
G02  24910095.30023     18621.72523      1254.63423        18.88823
G10  20305577.24105    -13629.52105      -811.13105        32.47705
G12  23688849.35123     10286.98423       646.64923        23.08623
G21  23699462.90324      2253.88324       144.75224        24.92424
G24  23234079.78123    -51563.37323     -4440.65023        22.40023
G25  23476455.38824     33023.16524      2079.75124        25.47524
G28  22589517.60224     38320.81724      2270.80724        25.31724
G32  21017926.69205     -1503.05305       -87.95905        30.27105
R02  19927276.63323     -3522.98223      -216.77823        22.38923
R18  21687729.89714     -6157.53614      -389.97514        25.92014
R12  20908476.06325     28914.29225      1982.72825        31.53625
R11  21281076.41714    -36332.37014     -2396.40414        26.20014
R01  20881404.80424    -38347.61724     -2916.53824        27.87424
R17  21478511.63624    -59530.19224     -3793.73424        28.83224
E02  26884207.95023     10652.68823      1514.87723        18.35223
E03  25729029.06423    -20938.11323     -2979.11823        21.08523
E08  23495842.96614    -18602.68114     -1181.71914        27.72414
E13  24315872.47224    -45728.18224     -2390.10524        25.30624
E15  26772193.79623    -29348.73623     -4179.71123        20.29923
E25  26915386.06624     -5464.00024      -377.50524        24.58024
E26  25858746.86223      8357.19223       483.13723        22.06823
> 2024 10 27 15 47 46.0004332  0 21                      
G02  24909681.88623     19875.69223      1253.65823        18.66723
G10  20305556.55605    -14440.84505      -812.02905        32.65505
G12  23688546.26124     10932.39424       644.46924        24.36524
G21  23699258.44523      2393.36223       137.47223        23.22823
G24  23234741.12323    -55997.64323     -4439.65023        23.25923
G25  23475880.68624     35107.83624      2078.37624        25.46124
G28  22588906.92524     40596.96724      2273.29124        26.14524
G32  21017759.10805     -1590.38805       -87.80105        30.00105
R02  19927135.43123     -3742.87923      -215.64523        21.99123
R18  21687656.14824     -6544.76824      -391.09124        26.06924
R12  20907921.44725     30896.07525      1981.23325        31.72625
R11  21281372.91224    -38729.33824     -2402.99424        25.73524
R01  20881778.64514    -41264.83514     -2916.54214        27.02514
R17  21479066.25224    -63324.23424     -3795.42024        28.79024
E02  26883744.47123     12166.11423      1516.09723        18.83423
E03  25729411.59913    -23892.33513     -2977.26313        21.96513
E08  23495885.53714    -19784.08214     -1181.95514        26.87514
E13  24316144.68324    -48118.32924     -2388.87524        24.35724
E15  26772808.67023    -33529.02623     -4180.20523        20.85823
E25  26915279.34024     -5842.61824      -378.85924        23.96724
E26  25858476.44913      8839.98913       482.45013        23.09513
> 2024 10 27 15 47 47.0004326  0 21                      
G02  24909264.27523     21130.92623      1253.65823        19.05923
G10  20305530.17405    -15253.29905      -812.79705        32.69205
G12  23688240.47224     11576.54224       645.95324        25.71924
G21  23699055.18523      2533.01823       135.67023        23.20223
G24  23235405.76323    -60430.27123     -4439.47523        23.15323
G25  23475317.97624     37194.25124      2081.37924        24.82624
G28  22588288.15414     42865.51014      2265.14014        26.99514
G32  21017603.51605     -1678.74605       -88.67705        29.68005
R02  19926995.72823     -3962.76423      -215.59123        22.67223
R18  21687532.03424     -6938.27424      -389.78324        24.51324
R12  20907370.42925     32876.64625      1980.38325        32.15025
R11  21281640.62714    -41127.99214     -2401.73414        26.15614
R01  20882152.18724    -44182.95324     -2918.02624        27.89124
R17  21479584.89324    -67119.49324     -3795.63624        27.96624
E02  26883275.59623     13682.31623      1516.09723        18.81323
E03  25729796.53323    -26869.89723     -2978.74423        23.38123
E08  23495934.10324    -20966.26524     -1182.62424        26.43024
E13  24316420.49224    -50509.69124     -2391.71024        25.38324
E15  26773425.34323    -37711.27023     -4181.19023        20.70823
E25  26915169.91613     -6222.29113      -380.06913        23.39213
E26  25858203.93813      9321.94813       481.53713        23.30813
> 2024 10 27 15 47 48.0004319  0 20                      
G10  20305477.71005    -16065.86705      -812.85805        32.82005
G12  23687904.40514     12220.65114       643.29014        25.38114
G21  23698816.85024      2671.83524       135.92524        24.54424
G24  23236041.62323    -64867.21223     -4438.81723        23.09623
G25  23474708.49724     39274.73724      2077.77024        24.94424
G28  22587651.39414     45134.25814      2264.43314        26.59214
G32  21017414.04704     -1766.92504       -88.11404        29.36804
R02  19926825.14623     -4184.17323      -215.45723        20.76823
R18  21687354.25724     -7333.95924      -392.42824        25.19724
R12  20906789.73125     34856.96325      1980.06525        32.16725
R11  21281902.64514    -43526.91714     -2399.65014        25.93314
R01  20882523.93024    -47100.91124     -2917.80124        27.69024
R17  21480066.35924    -70915.06224     -3795.40724        28.02924
E02  26882776.74123     15198.52123      1516.09723        18.76123
E03  25730153.88523    -29848.67723     -2979.13923        22.68423
E08  23495954.18924    -22148.18424     -1181.59124        27.23624
E13  24316667.82114    -52900.94114     -2390.28514        26.29214
E15  26774012.33723    -41893.89923     -4181.62023        21.53423
E25  26915031.11213     -6602.00313      -379.77913        23.32513
E26  25857900.84813      9803.72113       481.72613        23.33813
> 2024 10 27 15 47 49.0004313  0 20                      
G10  20305450.72905    -16878.09705      -811.77005        32.88205
G12  23687603.11414     12864.84114       644.09514        25.05214
G21  23698610.59324      2808.64424       135.88924        24.53924
G24  23236705.36423    -69312.25223     -4438.74723        22.37823
G25  23474129.29814     41355.52214      2082.19914        24.85514
G28  22587047.61214     47403.21814      2271.86914        25.54714
G32  21017249.76105     -1854.74705       -87.90605        29.79305
R02  19926685.14323     -4407.63923      -216.08623        18.57423
R18  21687261.32114     -7728.45614      -396.35014        25.70314
R12  20906240.81125     36837.37025      1980.56925        31.97025
R11  21282137.68314    -45925.96214     -2395.72214        25.84414
R01  20882886.67824    -50018.44124     -2917.17324        27.27324
R17  21480602.08924    -74710.44524     -3794.60624        28.60124
E02  26882311.46323     16713.46323      1516.09723        18.64723
E03  25730539.41823    -32828.55623     -2979.46423        21.14723
E08  23495991.96324    -23329.73924     -1181.19124        27.34024
E13  24316943.33024    -55292.01924     -2390.17424        26.27824
E15  26774628.41023    -46077.14023     -4181.87423        20.86523
E25  26914922.58714     -6981.40114      -379.28314        24.13714
E26  25857628.33613     10285.91913       482.36613        22.22913
> 2024 10 27 15 47 50.0004307  0 20                      
G10  20305422.54805    -17691.44105      -814.11305        33.15705
G12  23687298.82424     13507.94924       640.01924        23.74624
G21  23698402.83724      2944.70924       136.57824        24.70924
G24  23237370.00323    -73755.95123     -4438.98523        22.87623
G25  23473553.99724     43435.45224      2080.91324        24.63024
G28  22586430.34014     49671.46014      2268.39014        26.50714
G32  21017082.77605     -1943.22105       -89.09805        30.15205
R02  19926543.94123     -4631.38723      -218.85123        18.50823
R18  21687156.09424     -8120.03324      -396.84824        26.50824
R12  20905702.38305     38816.73705      1979.26005        31.23105
R11  21282419.78724    -48318.63324     -2400.04224        25.86924
R01  20883171.18114    -52936.54014     -2914.35814        26.79414
R17  21481153.70724    -78507.00024     -3797.51824        29.17124
E02  26881830.29623     18228.07023      1515.12123        18.27723
E03  25730925.55123    -35809.52323     -2979.48423        19.00523
E08  23496036.03314    -24511.73614     -1181.94814        28.04214
E13  24317218.54024    -57684.16724     -2392.90024        26.03424
E15  26775243.28523    -50260.85323     -4181.56623        21.03323
E25  26914815.86123     -7361.41623      -379.76623        22.54823
E26  25857354.92623     10767.38323       481.84823        22.39323
> 2024 10 27 15 47 51.0004301  0 19                      
G10  20305399.16505    -18505.78405      -814.90505        32.95405
G12  23686997.83323     14150.71223       638.79023        23.44123
G21  23698193.28224      3079.42824       137.97724        25.35724
G24  23238034.04423    -78197.29023     -4439.52123        22.31123
G25  23472971.20024     45514.55924      2074.11924        24.58424
G28  22585817.86424     51938.80424      2265.00624        25.90224
G32  21016919.68905     -2032.61705       -89.84105        30.32105
R02  19926416.52923     -4847.49123      -221.29023        20.41823
R18  21687049.66814     -8516.84614      -398.51514        24.43114
R12  20905143.27005     40794.74705      1977.61505        31.72705
R11  21282673.41224    -50718.45524     -2405.48724        25.50324
R01  20883579.49924    -55855.71724     -2919.60224        27.70824
R17  21481685.23925    -82304.70425     -3797.96325        29.70825
E02  26881358.12323     19744.64223      1515.12123        17.60423
E08  23496080.40214    -25694.68514     -1183.07314        27.95914
E13  24317490.75124    -60077.13824     -2393.04824        24.99224
E15  26775856.06123    -54444.95523     -4181.66923        20.78923
E25  26914710.03424     -7743.11624      -380.61524        24.10524
E26  25857080.31623     11247.35223       479.44623        22.75023
> 2024 10 27 15 47 52.0004295  0 19                      
G10  20305377.87905    -19320.48005      -814.65305        32.53905
G12  23686701.63823     14795.71823       640.15423        23.17923
G21  23697974.13424      3214.87724       135.03424        23.81724
G24  23238696.58523    -82638.82523     -4439.73323        21.72923
G25  23472377.31124     47592.41024      2079.27324        23.57624
G28  22585217.67924     54205.32824      2263.11024        25.88124
G32  21016759.90004     -2122.09704       -89.11104        28.92204
R02  19926272.62923     -5065.81123      -224.19523        18.43923
R18  21686981.01524     -8916.48124      -397.99624        23.55524
R12  20904594.05105     42772.35005      1977.96305        31.46305
R11  21282965.41024    -53119.30324     -2409.49124        24.38424
R01  20883953.64014    -58774.79614     -2918.64814        27.05514
R17  21482199.98224    -86102.97624     -3798.22124        29.11924
E03  25731702.31323    -41774.27923     -2980.00523        19.72223
E08  23496126.57014    -26877.65514     -1182.87214        26.84014
E13  24317763.56324    -62470.47424     -2392.62224        23.97524
E15  26776472.13423    -58629.04523     -4181.55023        19.65823
E25  26914604.50713     -8124.77813      -381.14513        23.31313
E26  25856809.30313     11727.34113       479.81013        21.45013
> 2024 10 27 15 47 53.0004289  0 19                      
G10  20305350.89805    -20135.33205      -814.16905        33.24105
G12  23686397.64824     15436.64324       640.34624        24.90024
G21  23697771.47424      3344.68324       134.14424        23.62524
G24  23239360.62523    -87082.49423     -4438.66423        22.40623
G25  23471804.10824     49670.12724      2079.38824        23.61024
G28  22584607.30224     56466.24824      2264.12024        26.08324
G32  21016592.01624     -2211.13424       -88.73524        27.99424
R02  19926136.52323     -5285.53223      -224.09023        19.62123
R18  21686828.12124     -9321.14924      -397.80224        25.39324
R12  20904044.23105     44749.62605      1977.91605        32.32705
R11  21283213.03824    -55525.11824     -2402.03024        24.71424
R01  20884339.17324    -61696.87024     -2918.82724        27.42524
R17  21482738.11025    -89901.51725     -3797.76725        29.93125
E03  25732088.14623    -44757.35323     -2980.54923        18.91123
E08  23496170.34024    -28060.47724     -1182.20924        26.73224
E13  24318044.46823    -64864.21323     -2394.98823        22.95523
E15  26777087.60823    -62813.26323     -4182.03523        18.94723
E25  26914497.18124     -8506.60024      -381.88124        23.85624
E26  25856536.79214     12207.17714       479.76014        23.58914
> 2024 10 27 15 47 54.0004283  0 19                      
G10  20305324.21705    -20950.03205      -815.09105        33.18105
G12  23686103.25224     16078.25024       639.43324        24.78424
G21  23697564.61724      3479.20724       134.51424        23.88224
G24  23240025.26523    -91526.38223     -4438.43823        21.03923
G25  23471229.70624     51749.80924      2079.67924        24.33424
G28  22583996.02524     58729.74824      2269.30324        25.34324
G32  21016433.42624     -2300.13424       -89.25024        28.35324
R02  19925999.81723     -5501.62123      -222.49623        19.07523
R18  21686701.30924     -9720.94824      -398.08224        24.20724
R12  20903491.11405     46727.02305      1976.91205        31.88805
R11  21283467.86224    -57929.98324     -2402.55224        25.81824
R01  20884690.23024    -64619.58124     -2920.58924        27.45924
R17  21483269.34225    -93700.08425     -3798.94525        30.27625
E03  25732475.17823    -47740.81223     -2981.18223        20.09323
E08  23496213.81024    -29242.61224     -1182.37524        26.88424
E13  24318326.87323    -67257.08023     -2393.51723        22.96523
E15  26777703.98123    -66979.66523     -4180.70723        20.17723
E25  26914388.65624     -8887.87624      -381.28924        24.32724
E26  25856265.48023     12687.49423       480.39223        22.89523
> 2024 10 27 15 47 55.0004276  0 18                      
G10  20305270.55405    -21765.71105      -816.72405        33.12305
G12  23685769.88314     16719.07014       644.68714        24.32314
G21  23697332.27824      3612.58024       134.05124        24.78724
G24  23240658.42723    -95966.49823     -4440.30423        19.38523
G25  23470625.62424     53828.64124      2079.22324        24.13024
G28  22583340.07924     60996.66024      2271.33824        25.15624
G32  21016244.25704     -2390.44004       -90.07504        28.53104
R02  19925848.12223     -5717.89023      -223.60423        19.40623
R18  21686604.17624    -10115.20724      -400.63424        25.32324
R12  20902909.51705     48703.18905      1975.03305        32.18705
R11  21283704.09814    -60334.57314     -2405.54914        25.12214
R01  20885026.89724    -67539.01324     -2919.63924        27.69724
R17  21483784.98525    -97499.74925     -3800.71525        30.63625
E03  25732834.32923    -50724.75123     -2980.99923        18.90023
E08  23496228.79924    -30425.65824     -1183.78624        27.50924
E13  24318566.70713    -69651.54113     -2394.21713        22.80313
E25  26914250.75224     -9270.39524      -381.62424        23.58924
E26  25855965.38823     13166.62423       479.79423        22.96623
> 2024 10 27 15 47 56.0004270  0 19                      
G10  20305247.76905    -22582.46305      -817.13305        33.29705
G12  23685463.19514     17358.73314       639.38014        25.90114
G21  23697127.82024      3744.73224       134.10224        23.67824
G24  23241326.66423   -100408.26023     -4440.75423        19.18723
G25  23470055.41924     55906.72524      2077.79724        24.54624
G28  22582724.00524     63264.27424      2265.12524        25.01724
G32  21016076.67304     -2481.33204       -91.53504        28.60204
R02  19925722.80923     -5936.65623      -224.07423        20.30323
R18  21686532.22614    -10516.42614      -405.38114        26.39014
R12  20902371.09005     50678.15905      1974.50705        32.79005
R11  21284021.87824    -62740.78424     -2409.25024        25.60624
R01  20885386.94714    -70459.40314     -2921.89414        27.42214
R17  21484308.72325   -101300.69125     -3801.46825        30.80525
E03  25733222.26113    -53709.10213     -2980.70913        18.51713
E08  23496274.96724    -31609.40024     -1183.79724        27.14124
E13  24318842.21623    -72047.05823     -2394.38723        23.45823
E15  26778908.54723    -75340.75823     -4180.79023        20.60123
E25  26914143.42623     -9654.15823      -382.09223        23.04323
E26  25855694.67523     13644.58923       477.50023        22.76023
> 2024 10 27 15 47 57.0004264  0 19                      
G10  20305220.48805    -23400.55905      -818.35405        32.99005
G12  23685161.30414     17996.87214       638.27214        26.31614
G21  23696925.46024      3875.62624       133.74724        23.55724
G24  23241991.30423   -104844.58323     -4442.40523        18.67323
G25  23469484.31424     57983.78524      2078.13524        24.98824
G28  22582112.72924     65528.96524      2262.00724        25.54524
G32  21015914.18504     -2573.08604       -91.53604        28.51004
R02  19925602.89223     -6159.83523      -224.41723        18.98923
R18  21686425.80024    -10919.15724      -402.98324        27.47124
R12  20901826.06705     52651.68205      1973.23605        32.80505
R11  21284304.88224    -65149.06324     -2411.30824        25.35824
R01  20885764.38624    -73380.77224     -2923.46224        27.17524
R17  21484842.95325   -105102.97125     -3802.86725        30.83525
E03  25733613.79023    -56691.58523     -2980.65223        18.04523
E08  23496322.33524    -32794.21624     -1185.09924        26.97424
E13  24319117.12624    -74444.25024     -2395.42724        23.93124
E15  26779527.31923    -79521.70823     -4181.55523        19.52723
E25  26914034.60223    -10038.84123      -385.41023        22.12523
E26  25855425.16213     14121.65213       478.61513        22.50313
> 2024 10 27 15 47 58.0004258  0 18                      
G10  20305195.00605    -24218.45705      -817.77405        33.45605
G12  23684860.91214     18635.40714       635.36414        26.83514
G21  23696720.70223      4003.66323       133.18123        23.08123
G24  23242654.74523   -109288.60023     -4442.16723        18.47123
G25  23468908.71324     60061.52424      2077.93824        25.01424
G28  22581508.34724     67793.99924      2261.28224        26.06824
G32  21015754.99604     -2664.54704       -90.95904        28.28004
R02  19925459.89123     -6389.02223      -224.13423        20.12723
R18  21686302.28514    -11322.32214      -405.11414        28.03014
R12  20901272.65005     54625.28305      1974.12105        32.95305
R11  21284588.78624    -67552.03324     -2405.85724        24.88424
R01  20886137.62814    -76301.64214     -2924.08514        27.55414
R17  21485377.78225   -108905.11525     -3801.51825        30.83925
E03  25733996.62523    -59649.22123     -2978.53323        17.75123
E08  23496368.20314    -33978.42614     -1183.58414        26.54014
E13  24319392.03523    -76841.51923     -2395.77623        22.71023
E25  26913929.37423    -10424.28123      -383.65723        21.77223
E26  25855155.04923     14598.05423       478.16623        22.83323
> 2024 10 27 15 47 59.0004252  0 18                      
G10  20305170.42305    -25035.97605      -817.53705        33.70305
G12  23684568.31524     19274.09324       637.72224        26.08824
G21  23696516.24324      4128.73624       132.27924        23.73024
G24  23243311.29023   -113734.40023     -4442.92123        18.84123
G25  23468332.51124     62139.57924      2078.04524        25.15124
G28  22580899.46914     70059.63414      2263.77814        26.52714
G32  21015593.10804     -2755.43204       -90.53304        28.61604
R02  19925308.49623     -6617.73023      -224.61023        19.57523
R18  21686213.54724    -11725.29124      -403.72224        28.27124
R12  20900727.32805     56599.00505      1973.35105        32.74405
R11  21284815.12924    -69953.09924     -2407.50224        24.96924
R01  20886488.98514    -79221.86914     -2919.82214        27.26514
R17  21485894.02525   -112707.29125     -3802.51625        30.67225
E03  25734382.75823    -62628.17123     -2979.50823        18.03123
E08  23496413.47124    -35162.05724     -1183.65924        26.08324
E13  24319669.64323    -79238.89423     -2396.53323        21.78223
E25  26913823.24824    -10810.04324      -383.96024        23.84924
E26  25854884.63623     15074.33123       477.86823        22.09623
> 2024 10 27 15 48 00.0004245  0 19                      
G10  20305149.13805    -25854.25005      -818.60205        34.12505
G12  23684263.12614     19912.04314       636.89014        27.01114
G21  23696312.68423      4260.07423       131.27623        23.06123
G24  23243960.94123   -118176.99023     -4442.92123        18.78523
G25  23467757.51024     64217.22924      2078.34924        25.14524
G28  22580281.29714     72324.58314      2266.67114        27.04914
G32  21015413.23204     -2846.88204       -92.05104        28.28904
R02  19925167.29423     -6848.39723      -221.74323        18.87123
R18  21686091.53124    -12129.45824      -405.08524        27.97124
R12  20900170.61305     58571.91805      1972.40505        32.95605
R11  21285108.62624    -72370.44824     -2411.38024        24.50724
R01  20886856.23024    -82142.68724     -2918.39124        27.80524
R17  21486422.25925   -116510.28925     -3803.89025        30.28025
E03  25734764.69323    -65606.87323     -2979.50823        17.79623
E08  23496458.74024    -36346.24824     -1185.65624        25.25424
E13  24319946.65123    -81635.71223     -2396.06923        22.51223
E15  26781370.74323    -92067.46123     -4181.45923        19.12323
E25  26913717.42124    -11195.53224      -385.43424        23.88724
E26  25854612.42423     15551.63423       477.63223        22.19823
> 2024 10 27 15 48 01.0004239  0 19                      
G10  20305095.47505    -26673.69305      -819.74905        35.05205
G12  23683920.16324     20548.55824       641.03924        24.35324
G21  23696077.94724      4389.30624       130.90924        24.17124
G24  23244599.19923   -122617.65923     -4441.94623        18.85823
G25  23467160.02304     66294.09704      2076.86004        27.63604
G28  22579638.54224     74588.87924      2263.69624        25.76324
G32  21015227.66104     -2939.13204       -92.70704        28.39904
R02  19925002.70823     -7077.89323      -222.27323        22.39523
R18  21685933.54124    -12535.19424      -406.55724        28.24524
R12  20899601.90705     60543.56505      1971.18105        33.01505
R11  21285354.75624    -74782.09024     -2409.91424        24.45524
R01  20887212.38424    -85064.55624     -2922.30624        27.82024
R17  21486927.70925   -120314.44225     -3804.34125        31.20925
E03  25735122.64523    -68585.24723     -2978.53323        18.18223
E08  23496469.23314    -37530.94114     -1185.07614        25.73414
E13  24320194.58014    -84033.45814     -2398.04314        26.38014
E15  26781954.13923    -96247.01023     -4180.48323        18.91523
E25  26913579.51723    -11581.27123      -385.98123        23.44123
E26  25854313.53123     16027.33023       477.37823        23.03023
> 2024 10 27 15 48 02.0004233  0 18                      
G10  20305072.69105    -27493.75105      -820.62505        34.95205
G12  23683614.37523     21183.00023       639.34223        22.86823
G21  23695872.58924      4518.20724       129.92024        24.14524
G25  23466585.92104     68370.50704      2075.79704        27.25204
G28  22579021.56924     76852.78224      2265.89224        24.04324
G32  21015066.07204     -3031.87704       -93.13404        28.41704
R02  19924857.90823     -7297.68223      -223.50123        23.31923
R18  21685846.30124    -12941.86424      -406.92024        28.33724
R12  20899057.78305     62514.47205      1970.59105        33.20705
R11  21285629.06623    -77198.86523     -2410.82023        23.29123
R01  20887571.83524    -87986.61424     -2922.64724        27.57324
R17  21487460.14125   -124119.44125     -3805.35625        31.19225
E03  25735510.87723    -71565.50523     -2978.53323        18.40723
E08  23496516.30024    -38716.19424     -1185.87024        25.36124
E13  24320472.18724    -86431.63324     -2398.11824        25.69124
E15  26782563.31723   -100429.76123     -4180.48323        18.26523
E25  26913474.28913    -11967.92513      -386.86213        22.68213
E26  25854041.91923     16502.62123       475.04123        22.56923
> 2024 10 27 15 48 03.0004227  0 18                      
G10  20305049.30705    -28313.23605      -819.45105        35.40505
G12  23683312.48423     21819.29223       638.84023        23.36023
G21  23695668.73024      4647.55924       129.42024        24.67624
G25  23466011.81804     70447.82304      2077.31504        27.73804
G28  22578411.19124     79117.01924      2265.46824        24.39524
G32  21014899.98724     -3123.34824       -91.79524        28.55024
R02  19924713.70823     -7521.14123      -224.93523        21.65223
R18  21685759.66124    -13348.54324      -407.01324        29.42924
R12  20898513.66005     64485.71905      1971.32105        33.28305
R11  21285896.18124    -79611.95524     -2411.80624        24.38024
R01  20887920.79324    -90907.91224     -2920.91424        27.99424
R17  21487991.67325   -127923.94325     -3804.02425        31.72525
E03  25735897.60923    -74545.40723     -2980.48423        18.63923
E08  23496562.46814    -39900.48714     -1184.07014        25.09214
E13  24320754.89214    -88829.34414     -2397.42014        26.32814
E15  26783183.58823   -104611.39623     -4182.43423        18.12923
E25  26913367.26423    -12354.00723      -385.88023        22.21023
E26  25853773.00523     16978.55023       476.28823        21.79223
> 2024 10 27 15 48 04.0004221  0 18                      
G10  20305024.42405    -29132.66605      -819.74705        35.08905
G12  23683014.49024     22455.33224       638.85124        24.03924
G21  23695466.07024      4777.10224       128.18224        24.42424
G25  23465434.71804     72525.47204      2077.15404        28.39004
G28  22577799.31523     81380.94923      2265.29023        23.31623
G32  21014738.99924     -3215.04724       -92.19424        27.83124
R02  19924573.40523     -7744.20023      -224.73723        22.67623
R18  21685666.42625    -13755.42425      -407.01825        29.57825
R12  20897955.44605     66456.91205      1970.70705        33.94905
R11  21286168.69224    -82023.66624     -2412.54724        23.69524
R01  20888273.94924    -93828.88224     -2921.25424        27.40424
R17  21488519.00825   -131728.53125     -3804.70025        31.37025
E03  25736290.03723    -77525.04323     -2980.48423        19.11023
E08  23496607.43724    -41084.48524     -1184.99424        25.35724
E13  24321029.80124    -91226.77324     -2397.42624        26.01724
E15  26783809.55423   -108790.97623     -4182.43423        18.41623
E25  26913261.73713    -12739.57713      -385.35613        23.47113
E26  25853502.29323     17454.70523       476.28023        22.79323
> 2024 10 27 15 48 05.0004215  0 18                      
G10  20305001.34005    -29952.93105      -821.01305        35.39905
G12  23682715.29723     23092.54123       637.21423        23.45823
G21  23695260.71224      4905.80124       127.78224        24.67124
G25  23464858.81604     74602.63004      2077.13904        28.66504
G28  22577186.83923     83644.88423      2264.46123        22.78423
G32  21014578.31024     -3307.31724       -92.80424        29.05124
R02  19924425.00824     -7962.21124      -223.32324        23.62224
R18  21685554.60324    -14163.61824      -409.19024        28.97324
R12  20897398.13205     68427.16505      1969.63605        34.04205
R11  21286440.30423    -84436.67823     -2412.27523        21.94023
R01  20888657.38324    -96750.47624     -2922.30324        28.04024
R17  21489049.64025   -135534.17925     -3806.31525        31.37325
E03  25736674.97123    -80504.37623     -2978.53323        19.46223
E08  23496658.40214    -42268.81714     -1184.68514        26.06914
E13  24321304.41124    -93625.10724     -2398.10724        25.89124
E15  26784413.93623   -112973.46423     -4180.48323        17.87423
E25  26913154.71123    -13126.36123      -386.69423        23.42423
E26  25853230.98123     17929.98723       476.34723        22.63823
> 2024 10 27 15 48 06.0004209  0 18                      
G10  20304977.35705    -30774.54305      -822.26605        35.14505
G12  23682419.40224     23724.56824       635.58624        24.48124
G21  23695060.15124      5033.19224       127.15324        24.45124
G23  21572269.32923   -125830.98323     -3418.10023        21.71523
G25  23464279.61704     76678.61004      2075.74004        27.72004
G28  22576580.05923     85907.76223      2262.87723        22.27623
G32  21014417.62124     -3400.88024       -94.44624        29.05224
R02  19924291.60023     -8185.06123      -224.64523        23.06023
R18  21685457.47024    -14573.49324      -410.85424        29.00124
R12  20896844.11605     70395.85605      1967.84605        34.18705
R11  21286709.81723    -86852.38523     -2412.14023        22.97523
R01  20889028.52624    -99673.16824     -2923.45024        28.00624
R17  21489579.07425   -139341.25825     -3807.74025        31.33925
E08  23496703.37114    -43454.43514     -1186.36114        26.00214
E13  24321575.72324    -96024.81524     -2400.97124        25.13324
E15  26785041.40222   -117154.86122     -4181.45922        17.39022
E25  26913049.78313    -13514.36113      -388.49513        22.83013
E26  25852959.36913     18403.84913       473.19913        22.06313
> 2024 10 27 15 48 07.0004202  0 17                      
G10  20304922.19505    -31596.90405      -822.43005        35.33105
G12  23682090.83024     24354.55724       635.24524        24.37124
G21  23694824.51424      5160.80124       126.90924        24.88724
G23  21572701.33023   -129243.84423     -3418.09223        21.63223
G25  23463675.83524     78754.16524      2072.12024        26.42724
G28  22575940.60223     88169.17323      2261.69123        21.52523
G32  21014223.95504     -3495.32704       -93.61104        28.59704
R02  19924118.02023     -8404.82823      -226.30823        22.27023
R18  21685320.16524    -14984.55824      -410.84424        28.75724
R12  20896275.41005     72363.65605      1967.51505        34.33305
R11  21286951.15023    -89265.06023     -2412.72923        21.76923
R01  20889366.99224   -102596.35624     -2922.97324        28.62624
R17  21490088.12225   -143149.22925     -3808.31525        31.71425
E08  23496718.36014    -44640.38014     -1185.50014        26.99214
E13  24321823.95224    -98425.20524     -2399.41224        24.76624
E25  26912914.57714    -13903.10314      -389.14714        24.22414
E26  25852660.17613     18877.13613       473.91813        22.15313
> 2024 10 27 15 48 08.0004196  0 17                      
G10  20304898.21106    -32419.03306      -822.63706        35.70206
G12  23681798.83214     24988.63814       634.73814        24.37314
G21  23694621.25524      5287.40724       126.22724        24.93224
G23  21573175.00223   -132671.03923     -3417.99023        20.84623
G25  23463111.92614     80830.25514      2074.51414        26.60414
G28  22575335.02123     90427.55423      2261.03523        20.65123
G32  21014068.06305     -3588.78805       -93.78005        29.57505
R02  19923975.91823     -8627.61023      -225.81023        19.79623
R18  21685208.94224    -15395.83024      -411.59824        29.12724
R12  20895728.88805     74331.67705      1967.73405        34.83505
R11  21287221.56323    -91673.15823     -2412.70523        20.25923
R01  20889733.03924   -105519.08124     -2922.86724        28.47824
R17  21490624.75025   -146957.01025     -3808.23525        32.27225
E08  23496760.63114    -45825.73814     -1185.16614        27.00214
E13  24322092.26614   -100825.18514     -2400.00314        24.32814
E25  26912807.55124    -14291.32724      -388.00024        23.86224
E26  25852388.26423     19350.87123       473.79823        21.50123
> 2024 10 27 15 48 09.0004190  0 17                      
G10  20304874.52806    -33240.68306      -821.94306        36.23006
G12  23681493.04414     25622.91414       638.32814        24.55214
G21  23694415.29814      5414.47414       125.78014        26.06514
G23  21573654.07022   -136090.22722     -3421.16922        17.49722
G25  23462527.93024     82906.83224      2075.47824        26.70824
G28  22574720.74624     92686.32824      2261.85324        24.38324
G32  21013900.18005     -3681.81705       -93.03405        29.82505
R02  19923857.50023     -8854.42923      -226.79323        21.00523
R18  21685110.31125    -15806.96225      -411.14925        29.65025
R12  20895179.36805     76299.87605      1967.98905        34.54705
R11  21287481.18323    -94081.78623     -2414.51823        21.21923
R01  20890108.07925   -108441.13925     -2922.19025        29.85825
R17  21491152.68525   -150764.61125     -3808.16325        32.69025
E08  23496807.39904    -47010.47204     -1185.05604        29.40704
E13  24322376.76924   -103224.87224     -2400.62724        27.03624
E25  26912701.42413    -14679.16113      -387.61113        23.25013
E26  25852122.34813     19825.06113       474.36613        21.51313
> 2024 10 27 15 48 10.0004184  0 16                      
G10  20304851.74406    -34063.22806      -823.65106        36.75706
G12  23681194.15024     26256.32124       635.78824        25.41724
G21  23694211.13914      5540.79514       124.42314        26.01014
G25  23461952.62824     84982.98724      2075.04424        27.93224
G28  22574110.36923     94945.33323      2262.68723        23.42423
G32  21013738.89105     -3775.31105       -93.88505        30.20905
R02  19923713.30023     -9079.19423      -224.98423        20.27423
R18  21685011.07925    -16219.39825      -413.10125        29.66925
R12  20894633.44605     78267.06105      1966.17505        34.64105
R11  21287747.39923    -96503.24523     -2415.64223        21.57923
R01  20890464.53225   -111363.77325     -2923.36625        30.46625
R17  21491682.11825   -154573.13425     -3809.57225        33.16825
E08  23496858.36305    -48195.62205     -1185.54705        30.98205
E13  24322653.47724   -105625.21324     -2401.21924        27.48424
E25  26912595.29823    -15067.71023      -388.07623        22.80123
E26  25851853.13423     20298.55323       474.02423        20.70023
> 2024 10 27 15 48 11.0004178  0 16                      
G10  20304826.86106    -34887.44206      -824.89706        36.86006
G12  23680891.06024     26888.08724       633.84724        25.69424
G21  23694007.58014      5665.56614       123.96314        24.78914
G25  23461373.12924     87057.71224      2073.67224        28.30324
G28  22573502.68924     97204.80224      2261.60624        26.43524
G32  21013581.50005     -3870.33905       -95.04105        30.92405
R02  19923581.09223     -9302.87223      -225.36023        23.37423
R18  21684911.84825    -16633.91725      -414.83725        30.65425
R12  20894090.82205     80232.49305      1964.77405        34.86905
R11  21288009.71823    -98919.30723     -2416.36823        22.12523
R01  20890832.37825   -114287.93225     -2924.42625        29.69225
R17  21492211.55225   -158383.50725     -3811.00125        33.28625
E08  23496902.73305    -49382.18705     -1186.23805        30.72105
E13  24322930.48624   -108027.26424     -2401.50824        26.74724
E25  26912489.77123    -15458.37823      -389.07823        22.66023
E26  25851581.82223     20769.93423       472.49223        20.60523
> 2024 10 27 15 48 12.0004172  0 17                      
G10  20304801.97806    -35712.03506      -824.61406        36.47206
G12  23680606.55714     27519.59314       631.19814        25.48214
G21  23693813.31414      5789.55014       125.26014        23.82114
G25  23460804.42324     89132.42124      2074.33524        27.90124
G28  22572896.80924     99465.44924      2260.22324        27.60824
G32  21013420.51205     -3965.50605       -95.05805        30.60805
R02  19923450.98224     -9523.89624      -225.54424        24.56724
R18  21684821.01125    -17049.26825      -415.58725        30.46825
R12  20893536.50605     82197.34305      1964.57605        34.73705
R11  21288284.32723   -101338.79623     -2418.28323        20.28123
R01  20891216.11224   -117212.18224     -2924.44224        29.12124
R17  21492740.68525   -162194.38725     -3810.95025        33.33225
E03  25739357.21423   -101357.60423     -2979.02423        20.24923
E08  23496947.40205    -50568.90805     -1186.81505        30.33405
E13  24323207.19414   -110429.59314     -2402.95114        25.40314
E25  26912382.44523    -15849.05323      -389.49823        21.21823
E26  25851312.00923     21241.31123       471.44723        20.43023
> 2024 10 27 15 48 13.0004165  0 18                      
G10  20304751.61306    -36536.02006      -823.54006        36.67706
G12  23680280.38324     28151.03724       630.62324        24.79724
G21  23693575.27924      5917.31724       130.48524        24.05624
G23  21575513.68324   -149779.83324     -3422.96924        23.68824
G25  23460207.83604     91207.94104      2075.63404        28.19904
G28  22572250.15624    101730.16824      2263.84724        24.28924
G32  21013230.44305     -4059.73805       -93.75905        30.50405
R02  19923277.40223     -9744.47223      -225.65223        22.99523
R18  21684703.49225    -17464.23425      -414.52725        29.99325
R12  20892956.10705     84162.73505      1965.34405        34.77905
R11  21288542.74923   -103757.03423     -2419.62823        21.39923
R01  20891537.78924   -120135.49224     -2922.60424        28.66724
R17  21493242.23825   -166004.71825     -3810.25425        33.42325
E03  25739721.46223   -104338.60723     -2979.35723        20.09323
E08  23496965.38905    -51754.57605     -1185.50305        30.02505
E13  24323457.22114   -112831.19914     -2401.29814        26.41114
E25  26912247.83923    -16238.82923      -389.73723        22.73023
E26  25851010.11823     21713.84923       471.95223        20.85523
> 2024 10 27 15 48 14.0004159  0 18                      
G10  20304728.22926    -37359.69526      -824.20626        36.51626
G12  23679977.29323     28784.08723       627.68723        22.64623
G21  23693375.61724      6052.76024       127.03924        24.21724
G23  21575997.54824   -153202.88524     -3423.52224        25.49224
G25  23459623.54124     93283.62024      2076.34324        27.58424
G28  22571638.28023    103998.84423      2263.02223        22.42523
G32  21013067.95625     -4153.57025       -94.24325        30.19425
R02  19923146.69324     -9970.25824      -225.02224        25.41224
R18  21684585.97424    -17879.89424      -415.84024        29.47024
R12  20892411.68425     86127.83625      1964.93225        34.87225
R11  21288817.05923   -106172.76023     -2420.93523        20.01923
R01  20891889.74624   -123058.82724     -2923.19824        27.96724
R17  21493773.17025   -169815.34225     -3810.82425        33.47325
E03  25740108.79323   -107320.20023     -2979.70923        20.38223
E08  23497012.75724    -52940.04624     -1185.23724        29.31724
E13  24323729.43324   -115232.97324     -2401.50824        26.13524
E25  26912145.01023    -16628.89723      -390.09423        22.71323
E26  25850741.50423     22185.75123       471.73623        21.94623
> 2024 10 27 15 48 15.0004153  0 18                      
G10  20304704.54626    -38184.63026      -825.95326        36.44926
G12  23679678.99923     29418.48423       629.58623        21.55823
G21  23693166.06223      6175.18323       122.48123        22.93423
G23  21576453.23224   -156626.59024     -3420.53624        24.85724
G25  23459050.63724     95358.71524      2074.67124        27.46424
G28  22571027.60323    106261.10723      2262.25623        21.73523
G32  21012906.66725     -4248.49825       -96.21125        30.22325
R02  19922994.09824    -10196.32724      -227.34624        24.49424
R18  21684486.14325    -18296.74125      -418.01325        29.76625
R12  20891865.16325     88091.99525      1963.12425        34.49925
R11  21289092.86823   -108588.17523     -2420.23223        19.35623
R01  20892265.38624   -125982.61724     -2924.28224        28.15124
R17  21494313.99625   -173626.94425     -3812.64425        32.81825
E03  25740489.53023   -110302.49723     -2979.71523        19.61523
E08  23497058.62524    -54126.13524     -1186.44024        29.12024
E13  24324008.23924   -117635.51724     -2403.10924        26.28424
E25  26912040.08223    -17019.71423      -391.20423        22.35823
E26  25850476.78723     22657.19323       471.04023        22.56823
> 2024 10 27 15 48 16.0004147  0 18                      
G10  20304682.96026    -39010.58126      -826.24526        36.46726
G12  23679379.50723     30051.74123       631.14823        20.66723
G21  23692961.90424      6292.66624       123.70124        23.74224
G23  21576944.89224   -160051.22324     -3422.02424        24.45024
G25  23458478.03424     97433.08424      2073.90424        27.65124
G28  22570417.52523    108521.05023      2261.04123        20.62323
G32  21012747.17825     -4344.05525       -95.60225        29.59225
R02  19922851.39724    -10417.03224      -224.46524        24.16124
R18  21684386.91124    -18714.97324      -418.67124        29.35124
R12  20891322.83825     90054.94725      1962.65325        34.49625
R11  21289388.76323   -111000.82623     -2419.03323        19.15623
R01  20892662.31124   -128907.22124     -2924.61424        28.42624
R17  21494839.23225   -177439.71825     -3813.52825        32.40625
E03  25740873.26423   -113284.40923     -2980.59523        19.15023
E08  23497101.49524    -55312.87024     -1186.56624        28.39324
E13  24324284.64824   -120039.06724     -2403.34524        26.42124
E25  26911935.75523    -17411.74123      -392.51923        23.15423
E26  25850209.37223     23127.41423       469.86723        22.70123
> 2024 10 27 15 48 17.0004141  0 18                      
G10  20304658.97726    -39837.36926      -827.25126        36.61326
G12  23679080.91323     30679.07623       628.36123        20.06823
G21  23692761.64224      6412.74224       122.95124        23.55724
G23  21577410.76924   -163476.51324     -3422.89724        24.60024
G25  23457898.83524     99506.88224      2075.31524        26.89024
G28  22569811.64523    110774.92123      2260.66723        20.18523
G32  21012586.78925     -4440.41125       -96.81125        29.92225
R02  19922686.21124    -10638.93524      -229.59924        24.17424
R18  21684277.18725    -19134.47325      -420.32825        29.64925
R12  20890777.51625     92016.93825      1961.51025        34.28425
R11  21289649.28223   -113420.43623     -2419.51623        17.83623
R01  20893012.46824   -131832.49024     -2925.70624        28.09024
R17  21495376.46125   -181253.40325     -3814.10125        33.07025
E03  25741262.39523   -116255.30023     -2980.45023        18.04623
E08  23497150.36124    -56500.24924     -1188.08224        28.42224
E13  24324559.55824   -122443.39524     -2404.98424        26.75424
E25  26911830.22824    -17804.33124      -393.06224        24.22624
E26  25849938.36023     23596.99323       469.24823        23.38223
> 2024 10 27 15 48 18.0004134  0 18                      
G10  20304608.61226    -40663.90726      -826.20726        36.49226
G12  23678743.64723     31302.31223       628.20823        18.43323
G21  23692529.30323      6534.88123       121.53423        23.13223
G23  21577853.56324   -166901.65324     -3426.52724        25.05124
G25  23457299.25024    101581.19624      2075.24924        27.17224
G28  22569169.78923    113037.21023      2259.86123        19.30223
G32  21012395.82125     -4536.13125       -94.90625        29.61825
R02  19922562.39724    -10867.57124      -229.60224        24.96324
R18  21684140.48224    -19554.08424      -419.55524        29.43524
R12  20890201.01525     93979.07025      1962.44225        34.48425
R11  21289878.92423   -115841.74623     -2420.84223        20.10323
R01  20893345.83824   -134757.21724     -2924.20224        28.76124
R17  21495876.81425   -185067.00825     -3813.38225        32.98625
E03  25741611.05323   -119235.81823     -2980.31723        17.80923
E08  23497161.45424    -57686.86924     -1185.84924        28.25724
E13  24324806.28724   -124847.35024     -2403.41624        26.63324
E25  26911694.42224    -18196.60624      -391.73124        23.66624
E26  25849639.46723     24066.75923       470.35123        22.47423
> 2024 10 27 15 48 19.0004128  0 17                      
G10  20304584.92826    -41490.74526      -826.97226        35.97726
G12  23678439.95722     31925.55522       630.71122        17.12222
G21  23692327.54324      6657.27724       120.99024        23.60524
G23  21578320.63924   -170323.74224     -3425.70824        24.74724
G25  23456734.14124    103655.97724      2073.34624        25.94724
G28  22568560.01123    115296.96923      2261.22723        19.44323
G32  21012226.13924     -4632.09724       -95.89024        28.87824
R02  19922441.28124    -11089.40624      -224.57024        25.62124
R18  21684046.94724    -19973.81224      -419.86124        29.37224
R12  20889643.70125     95941.26025      1961.56425        34.91625
R11  21290143.64023   -118265.62123     -2422.45823        21.04823
R01  20893732.57024   -137681.59524     -2925.72924        28.68824
R17  21496410.74525   -188880.48425     -3813.98125        31.46025
E08  23497204.92424    -58873.16124     -1187.29124        27.03024
E13  24325090.49024   -127251.06824     -2404.06924        26.15024
E25  26911591.59323    -18588.57223      -391.86923        22.40023
E26  25849369.05423     24537.38423       469.77823        21.69523
> 2024 10 27 15 48 20.0004122  0 18                      
G10  20304563.04426    -42317.21026      -826.83826        35.63026
G12  23678131.47123     32581.18423       630.20623        17.53923
G21  23692124.58324      6778.79024       121.34624        23.71224
G23  21578809.00124   -173749.04424     -3423.39924        24.68424
G25  23456154.34224    105730.30324      2073.10424        26.11124
G28  22567951.43223    117560.39323      2259.94323        20.89123
G32  21012063.95124     -4727.53124       -96.41724        28.74224
R02  19922314.76824    -11316.20224      -222.96624        25.50324
R18  21683936.92324    -20394.67324      -420.46424        28.78124
R12  20889109.77025     97902.65925      1961.54025        34.47825
R11  21290426.04523   -120693.82223     -2423.54023        20.96623
R01  20894111.20824   -140606.26824     -2924.74824        27.76924
R17  21496939.87825   -192694.80425     -3814.17625        32.08825
E03  25742392.91223   -125194.71423     -2979.50823        18.02823
E08  23497253.49024    -60059.67724     -1186.39824        27.34824
E13  24325362.70224   -129655.55724     -2405.35024        25.39924
E25  26911487.26523    -18981.42323      -392.71023        22.07423
E26  25849101.34023     25007.11323       469.45523        23.04823
> 2024 10 27 15 48 21.0004116  0 18                      
G10  20304540.25925    -43145.77925      -829.12225        35.22925
G12  23677846.96822     33212.15422       630.70922        17.14822
G21  23691919.22623      6898.91923       120.64423        23.08523
G23  21579276.97724   -177175.86024     -3426.76024        24.89024
G25  23455568.54824    107803.53124      2069.80424        25.98124
G28  22567341.95423    119820.40423      2260.11323        21.21823
G32  21011900.26424     -4824.68324       -97.83324        28.05424
R02  19922173.56624    -11544.15124      -224.32024        24.59424
R18  21683845.18624    -20817.60824      -420.73024        27.91324
R12  20888558.75225     99862.30925      1959.21525        33.45025
R11  21290716.24423   -123120.36323     -2422.56223        20.86323
R01  20894483.55024   -143532.35124     -2927.09224        27.35324
R17  21497467.51325   -196510.84125     -3816.59425        31.29325
E03  25742773.34923   -128174.42423     -2979.50823        18.02923
E08  23497298.75924    -61247.55124     -1189.02224        27.00924
E13  24325637.01224   -132061.43624     -2406.60424        25.22124
E25  26911379.04023    -19375.60923      -394.99923        21.27123
E26  25848830.62723     25476.20323       468.99623        22.97823
> 2024 10 27 15 48 22.0004110  0 18                      
G10  20304517.77525    -43975.39225      -829.99125        34.63325
G12  23677568.16122     33842.53422       630.70922        16.29822
G21  23691717.46523      7017.29623       120.21423        23.45823
G23  21579750.35024   -180601.45724     -3432.64124        23.82224
G25  23455001.64024    109875.70924      2068.77624        25.61424
G28  22566736.07423    122077.04723      2259.49723        18.43923
G32  21011738.97624     -4922.64024       -98.11024        27.12924
R02  19922036.56123    -11776.77623      -232.17823        23.39023
R18  21683709.38024    -21241.98224      -424.07424        26.72224
R12  20888010.43125    101820.76525      1958.03625        32.78425
R11  21290986.65723   -125546.21023     -2423.75423        18.49223
R01  20894840.30324   -146459.10224     -2930.31724        26.61124
R17  21498012.53625   -200328.04525     -3817.72225        30.87125
E03  25743156.78323   -131153.81823     -2979.50823        17.62523
E08  23497343.12824    -62436.03224     -1189.15124        25.99124
E13  24325919.11724   -134468.30724     -2407.98424        24.66024
E25  26911275.01223    -19770.86623      -395.90823        21.57023
E26  25848562.01323     25944.12923       468.69523        19.93823
> 2024 10 27 15 48 23.0004104  0 18                      
G10  20304496.78925    -44804.58725      -828.88425        34.03025
G12  23677265.97022     34473.13222       630.70922        16.13122
