NMEA,$GPGGA,154712.98,,,,,0,00,999.9,,M,,M,,*63,1730044034903
NMEA,$PGLOR,12,STA,154712.98,0.000,0.201,621,98,9999,0,P,F,L,1,C,2,S,00000000,0,2,R,00000000,TPEF,30,4105,LC,,,DR,0,,,,*00,1730044034904
NMEA,$PGLOR,1,UNC,154712.98,201047.044,9999.0,9999.0,0.00,0.00,10588.6,10588.6,90.0*21,1730044034904
NMEA,$PGLOR,2,SAT,5,1,G32,29,13,E13,24,13,R11,27,33,E26,32,10,E30,,20,G10,,10*2F,1730044034904
NMEA,$PGLOR,2,SAT,5,2,E08,,10,R02,,10,G23,,20,R01,,30,R12,,10,E07,,20*2C,1730044034904
NMEA,$PGLOR,2,SAT,5,3,G28,,20,E03,,20,R17,,30,R18,,30,G21,,20,G24,,20*35,1730044034904
NMEA,$PGLOR,2,SAT,5,4,E15,,20,G12,,20,G25,,20,R03,,30,E25,,20,E02,,20*23,1730044034904
NMEA,$PGLOR,2,SAT,5,5,G02,,20,R13,,30,R19,,30,R24,,30,G31,,20,E24,,20*2E,1730044034904
NMEA,$PGLOR,2,SVC,GPS,0,3,1,10,010,FFTU,FFNU,023,CLIN,CLIN,028,CLIN,CLIN,032,CLIN,CLIN*78,1730044034904
NMEA,$PGLOR,2,SVC,GPS,0,3,2,10,012,CLIN,CLIN,021,CLIN,CLIN,024,CLIN,CLIN,025,CLIN,CLIN*6B,1730044034904
NMEA,$PGLOR,2,SVC,GPS,0,3,3,10,002,CLIN,CLIN,031,CLIN,CLIN*6B,1730044034904
NMEA,$PGLOR,2,SVC,GLO,0,3,1,10,055,CLIN,CLIN,058,CLIN,CLIN,059,CLIN,CLIN,060,CLIN,CLIN*6E,1730044034904
NMEA,$PGLOR,2,SVC,GLO,0,3,2,10,056,CLIN,CLIN,057,CLIN,CLIN,063,CLIN,CLIN,064,CLIN,CLIN*6C,1730044034904
NMEA,$PGLOR,2,SVC,GLO,0,3,3,10,061,CLIN,CLIN,062,CLIN,CLIN*68,1730044034904
NMEA,$PGLOR,2,SVC,GAL,0,3,1,10,146,FFTU,FFNU,151,UNKN,UNKN,164,CLIN,CLIN,168,CLIN,CLIN*77,1730044034904
NMEA,$PGLOR,2,SVC,GAL,0,3,2,10,141,CLIN,CLIN,145,CLIN,CLIN,153,CLIN,CLIN,163,CLIN,CLIN*63,1730044034904
NMEA,$PGLOR,2,SVC,GAL,0,3,3,10,140,CLIN,CLIN,162,CLIN,CLIN*65,1730044034904
NMEA,$PGLOR,2,SIO,TxERR,0,RxERR,0,TxCNT,1376,RxCNT,2656,MLFRMPKT,0,DTMS,1008,DTIN,16,23,DTOUT,17,985,HATMD,-10*00,1730044034904
NMEA,$PGLOR,2,HLA,154712.98,L,,Al,,A,,H,,,M,,Ac,0,Gr,0,S,,,Sx,,,T,,Tr,,Mn,,Ap,,Ta,0,,,Aa,1,Ga,1,*1F,1730044034904
NMEA,$PGLOR,1,LSQ,154712.98,,,,,,,,,,,,,,,,00,,*3E,1730044034904
NMEA,$PGLOR,6,PWR,mA,29.9,RFTm,1003,OscTm,1003,MeasTm,1003,UTC,154712.98,GNSSmA,28.7,CPUTm,488,COPTm,23,COPMargTm,175,S*00,1730044034904
NMEA,$PGLOR,3,AGC,G,31.6,R,48.2,B,18.5,E5A,,AL1,24.1,AL5,,LTE,,PM1,,PM5,*0A,1730044034904
NMEA,$PSSGR,GSA,A,1,,,,,,,,,,,,,140.0,99.0,99.0,1,1*4B,1730044034904
NMEA,$PSSGR,GSA,A,1,,,,,,,,,,,,,140.0,99.0,99.0,1,8*42,1730044034904
NMEA,$PSSGR,GSA,A,1,,,,,,,,,,,,,140.0,99.0,99.0,1,9*43,1730044034904
NMEA,$PSSGR,GSA,A,1,,,,,,,,,,,,,140.0,99.0,99.0,2,1*48,1730044034904
NMEA,$PSSGR,GSA,A,1,,,,,,,,,,,,,140.0,99.0,99.0,5,1*4F,1730044034904
NMEA,$PSSGR,GSA,A,1,,,,,,,,,,,,,140.0,99.0,99.0,5,8*46,1730044034904
NMEA,$PSSGR,GSA,A,1,,,,,,,,,,,,,140.0,99.0,99.0,5,9*47,1730044034904
NMEA,$PSSGR,GSA,A,1,,,,,,,,,,,,,140.0,99.0,99.0,4,1*4E,1730044034904
NMEA,$PSSGR,GSA,A,1,,,,,,,,,,,,,140.0,99.0,99.0,4,5*4A,1730044034904
NMEA,$PSSGR,GSA,A,1,,,,,,,,,,,,,140.0,99.0,99.0,4,3*4C,1730044034904
NMEA,$PSSGR,GSA,A,1,,,,,,,,,,,,,140.0,99.0,99.0,3,7*4F,1730044034904
NMEA,$PSSGR,GSA,A,1,,,,,,,,,,,,,140.0,99.0,99.0,3,1*49,1730044034904
NMEA,$GPGSV,3,1,10,32,66,297,33,10,85,062,,23,43,125,,28,34,205,*75,1730044034904
NMEA,$GPGSV,3,2,10,21,25,308,,24,23,048,,12,20,087,,25,19,128,*77,1730044034904
NMEA,$GPGSV,3,3,10,02,13,322,,31,02,212,*7A,1730044034904
NMEA,$GLGSV,3,1,10,75,36,051,31,66,58,342,,65,41,068,,76,40,131,*61,1730044034904
NMEA,$GLGSV,3,2,10,81,32,250,,82,30,308,,67,19,292,,77,10,169,*67,1730044034904
NMEA,$GLGSV,3,3,10,83,07,343,,88,05,203,*68,1730044034904
NMEA,$GAGSV,3,1,10,113,52,238,30,126,31,310,36,130,-1,163,,108,75,354,*76,1730044034904
NMEA,$GAGSV,3,2,10,107,35,267,,103,33,065,,115,21,182,,125,19,065,*6A,1730044034904
NMEA,$GAGSV,3,3,10,102,18,118,,124,00,021,*6F,1730044034904
NMEA,$GPGSA,A,1,,,,,,,,,,,,,140.0,99.0,99.0*35,1730044034904
NMEA,$GPGSA,A,1,,,,,,,,,,,,,140.0,99.0,99.0,8*21,1730044034904
NMEA,$GPGSA,A,1,,,,,,,,,,,,,140.0,99.0,99.0,9*20,1730044034904
NMEA,$QZGSA,A,1,,,,,,,,,,,,,140.0,99.0,99.0*29,1730044034904
NMEA,$QZGSA,A,1,,,,,,,,,,,,,140.0,99.0,99.0,8*3D,1730044034904
NMEA,$QZGSA,A,1,,,,,,,,,,,,,140.0,99.0,99.0,9*3C,1730044034904
NMEA,$BDGSA,A,1,,,,,,,,,,,,,140.0,99.0,99.0*24,1730044034904
NMEA,$BDGSA,A,1,,,,,,,,,,,,,140.0,99.0,99.0,5*3D,1730044034904
NMEA,$BDGSA,A,1,,,,,,,,,,,,,140.0,99.0,99.0,3*3B,1730044034904
NMEA,$GAGSA,A,1,,,,,,,,,,,,,140.0,99.0,99.0*24,1730044034904
NMEA,$GAGSA,A,1,,,,,,,,,,,,,140.0,99.0,99.0,1*39,1730044034904
NMEA,$GNGSA,A,1,,,,,,,,,,,,,140.0,99.0,99.0*2B,1730044034904
NMEA,$GNGSA,A,1,,,,,,,,,,,,,140.0,99.0,99.0*2B,1730044034904
NMEA,$GPRMC,154712.98,V,,,,,,,271024,,,N*7A,1730044034904
NMEA,$GPGGA,154713.98,4228.760739,N,08323.569654,W,1,10,0.5,248.8,M,-34.6,M,,*53,1730044035965
NMEA,$PGLOR,12,STA,154713.98,-0.022,0.500,619,98,4,0,P,F,L,0,C,2,S,00000002,0,2,R,00000000,TPEF,30,5105,LC,,,DR,0,,,,tf*00,1730044035965
NMEA,$PGLOR,1,UNC,154713.98,201047.044,5.0,21.2,1.87,129.15,5.3,5.3,90.0*14,1730044035965
NMEA,$PGLOR,2,SAT,5,1,G10,28,17,G32,29,17,E13,26,17,G23,22,25,R12,22,10,R11,27,37*30,1730044035965
NMEA,$PGLOR,2,SAT,5,2,G28,26,27,E26,27,15,G21,21,25,G12,22,25,G25,21,25,E30,,20*3A,1730044035965
NMEA,$PGLOR,2,SAT,5,3,E08,,10,R02,,10,R01,,30,E07,,20,E03,,20,R17,,30*2A,1730044035965
NMEA,$PGLOR,2,SAT,5,4,R18,,30,G24,,20,E15,,20,R03,,30,E25,,20,E02,,20*3C,1730044035965
NMEA,$PGLOR,2,SAT,5,5,G02,,20,R13,,30,R19,,30,R24,,30,G31,,20,E24,,20*2E,1730044035966
NMEA,$PGLOR,2,SVC,GPS,0,3,1,10,010,UNKN,UNKN,023,FFTU,FFNU,028,UNKN,UNKN,032,UNKN,UNKN*78,1730044035966
NMEA,$PGLOR,2,SVC,GPS,0,3,2,10,012,UNKN,UNKN,021,UNKN,UNKN,024,UNKN,UNKN,025,CLIN,CLIN*6B,1730044035966
NMEA,$PGLOR,2,SVC,GPS,0,3,3,10,002,CLIN,CLIN,031,CLIN,CLIN*6B,1730044035966
NMEA,$PGLOR,2,SVC,GLO,0,3,1,10,055,UNKN,UNKN,058,FFTU,FFNU,059,CLIN,CLIN,060,CLIN,CLIN*74,1730044035966
NMEA,$PGLOR,2,SVC,GLO,0,3,2,10,056,CLIN,CLIN,057,CLIN,CLIN,063,CLIN,CLIN,064,CLIN,CLIN*6C,1730044035966
NMEA,$PGLOR,2,SVC,GLO,0,3,3,10,061,CLIN,CLIN,062,CLIN,CLIN*68,1730044035966
NMEA,$PGLOR,2,SVC,GAL,0,3,1,10,146,FFTU,FFNU,151,CLIN,CLIN,164,CLIN,CLIN,168,CLIN,CLIN*77,1730044035966
NMEA,$PGLOR,2,SVC,GAL,0,3,2,10,141,CLIN,CLIN,145,CLIN,CLIN,153,CLIN,CLIN,163,CLIN,CLIN*63,1730044035966
NMEA,$PGLOR,2,SVC,GAL,0,3,3,10,140,CLIN,CLIN,162,CLIN,CLIN*65,1730044035966
NMEA,$PGLOR,2,SIO,TxERR,0,RxERR,0,TxCNT,231,RxCNT,5888,MLFRMPKT,0,DTMS,1029,DTIN,13,24,DTOUT,13,1004,HATMD,19*29,1730044035966
NMEA,$PGLOR,2,HLA,154713.98,L,,Al,,A,,H,,,M,,Ac,0,Gr,0,S,,,Sx,,,T,,Tr,,Mn,,Ap,,Ta,0,,,Aa,1,Ga,1,*1E,1730044035966
NMEA,$PGLOR,1,LSQ,154713.98,,,,,,,,,,,,,,,,00,,*3F,1730044035966
NMEA,$PGLOR,6,PWR,mA,26.7,RFTm,1011,OscTm,1012,MeasTm,1012,UTC,154713.98,GNSSmA,25.5,CPUTm,422,COPTm,35,COPMargTm,171,S*00,1730044035967
NMEA,$PGLOR,3,AGC,G,33.0,R,48.7,B,18.5,E5A,,AL1,24.1,AL5,,LTE,,PM1,,PM5,*0B,1730044035967
NMEA,$PSSGR,GSA,A,3,10,12,21,23,25,28,32,,,,,,2.1,1.0,1.9,1,1*4A,1730044035967
NMEA,$PSSGR,GSA,A,3,,,,,,,,,,,,,2.1,1.0,1.9,1,8*4F,1730044035967
NMEA,$PSSGR,GSA,A,3,,,,,,,,,,,,,2.1,1.0,1.9,1,9*4E,1730044035967
NMEA,$PSSGR,GSA,A,3,75,,,,,,,,,,,,2.1,1.0,1.9,2,1*47,1730044035967
NMEA,$PSSGR,GSA,A,3,,,,,,,,,,,,,2.1,1.0,1.9,5,1*42,1730044035967
NMEA,$PSSGR,GSA,A,3,,,,,,,,,,,,,2.1,1.0,1.9,5,8*4B,1730044035967
NMEA,$PSSGR,GSA,A,3,,,,,,,,,,,,,2.1,1.0,1.9,5,9*4A,1730044035967
NMEA,$PSSGR,GSA,A,3,,,,,,,,,,,,,2.1,1.0,1.9,4,1*43,1730044035967
NMEA,$PSSGR,GSA,A,3,,,,,,,,,,,,,2.1,1.0,1.9,4,5*47,1730044035967
NMEA,$PSSGR,GSA,A,3,,,,,,,,,,,,,2.1,1.0,1.9,4,3*41,1730044035967
NMEA,$PSSGR,GSA,A,3,113,126,,,,,,,,,,,2.1,1.0,1.9,3,7*44,1730044035968
NMEA,$PSSGR,GSA,A,3,,,,,,,,,,,,,2.1,1.0,1.9,3,1*44,1730044035968
NMEA,$GPGSV,3,1,10,10,85,062,32,32,66,297,33,23,43,125,26,28,34,205,30*73,1730044035968
NMEA,$GPGSV,3,2,10,21,25,308,25,12,20,087,26,25,19,128,25,24,23,048,*73,1730044035968
NMEA,$GPGSV,3,3,10,02,13,322,,31,02,212,*7A,1730044035968
NMEA,$GLGSV,3,1,10,76,40,131,26,75,36,051,31,66,58,342,,65,41,068,*65,1730044035968
NMEA,$GLGSV,3,2,10,81,32,250,,82,30,308,,67,19,292,,77,10,169,*67,1730044035968
NMEA,$GLGSV,3,3,10,83,07,343,,88,05,203,*68,1730044035968
NMEA,$GAGSV,3,1,10,113,52,238,30,126,31,310,36,130,-1,163,,108,75,354,*76,1730044035968
NMEA,$GAGSV,3,2,10,107,35,267,,103,33,065,,115,21,182,,125,19,065,*6A,1730044035968
NMEA,$GAGSV,3,3,10,102,18,118,,124,00,020,*6E,1730044035968
NMEA,$GPGSA,A,3,10,12,21,23,25,28,32,,,,,,2.1,1.0,1.9*34,1730044035969
NMEA,$GPGSA,A,3,,,,,,,,,,,,,2.1,1.0,1.9,8*2C,1730044035969
NMEA,$GPGSA,A,3,,,,,,,,,,,,,2.1,1.0,1.9,9*2D,1730044035969
NMEA,$QZGSA,A,3,,,,,,,,,,,,,2.1,1.0,1.9*24,1730044035969
NMEA,$QZGSA,A,3,,,,,,,,,,,,,2.1,1.0,1.9,8*30,1730044035969
NMEA,$QZGSA,A,3,,,,,,,,,,,,,2.1,1.0,1.9,9*31,1730044035969
NMEA,$BDGSA,A,3,,,,,,,,,,,,,2.1,1.0,1.9*29,1730044035969
NMEA,$BDGSA,A,3,,,,,,,,,,,,,2.1,1.0,1.9,5*30,1730044035969
NMEA,$BDGSA,A,3,,,,,,,,,,,,,2.1,1.0,1.9,3*36,1730044035969
NMEA,$GAGSA,A,3,113,126,,,,,,,,,,,2.1,1.0,1.9*2F,1730044035969
NMEA,$GAGSA,A,3,,,,,,,,,,,,,2.1,1.0,1.9,1*34,1730044035969
NMEA,$GNGSA,A,3,10,12,21,23,25,28,32,,,,,,2.1,1.0,1.9*2A,1730044035969
NMEA,$GNGSA,A,3,75,,,,,,,,,,,,2.1,1.0,1.9*24,1730044035970
NMEA,$PGLOR,1,FIX,6.1,5.1*23,1730044035970
NMEA,$GPRMC,154713.98,A,4228.760739,N,08323.569654,W,000.0,,271024,,,A*63,1730044035970
NMEA,$PGLOR,NET,6.1,,6.1,,,UUA,,A,0*29,1730044035970
NMEA,$PGLOR,SPL,39241127114715.9,POS,20241027154713.976,42.479346,-83.392828,5,5,0,214,21,5.100000*70,1730044035971
NMEA,$GPGGA,154714.98,4228.760080,N,08323.570197,W,1,12,0.8,249.5,M,-34.6,M,,*52,1730044036985
NMEA,$PGLOR,12,STA,154714.98,0.020,0.500,619,98,8,0,P,F,L,0,C,2,S,00000002,0,3,R,00000000,TPEF,30,6105,LC,,,DR,0,,,,tf,*38,1730044036985
NMEA,$PGLOR,1,UNC,154714.98,201047.044,8.5,23.3,0.78,46.52,9.0,9.0,90.0*22,1730044036985
NMEA,$PGLOR,2,SAT,5,1,G10,29,17,E08,27,17,G32,26,17,R02,17,10,E13,26,17,G23,18,20*28,1730044036985
NMEA,$PGLOR,2,SAT,5,2,R01,20,30,R12,29,17,R11,24,37,G28,25,27,R17,27,37,E26,22,17*36,1730044036986
NMEA,$PGLOR,2,SAT,5,3,G21,20,20,G12,22,27,G25,22,27,G02,20,25,E30,,20,E07,,20*30,1730044036986
NMEA,$PGLOR,2,SAT,5,4,E03,,20,R18,,30,G24,,20,E15,,20,R03,,30,E25,,20*3D,1730044036986
NMEA,$PGLOR,2,SAT,5,5,E02,,20,R13,,30,R19,,30,R24,,30,G31,,20,E24,,20*2C,1730044036986
NMEA,$PGLOR,2,SVC,GPS,0,3,1,10,010,FFUS,FFUS,023,FFUS,FFUS,028,FFUS,FFUS,032,FFUS,FFUS*62,1730044036986
NMEA,$PGLOR,2,SVC,GPS,0,3,2,10,002,FFUS,FFUS,012,FFUS,FFUS,021,FFUS,FFUS,025,UNKN,UNKN*6F,1730044036986
NMEA,$PGLOR,2,SVC,GPS,0,3,3,10,024,CLIN,CLIN,031,CLIN,CLIN*6F,1730044036986
NMEA,$PGLOR,2,SVC,GLO,0,3,1,10,055,UNKN,UNKN,058,UNKN,UNKN,059,CLIN,CLIN,060,FFUS,FFUS*6E,1730044036986
NMEA,$PGLOR,2,SVC,GLO,0,3,2,10,056,UNKN,UNKN,057,CLIN,CLIN,063,CLIN,CLIN,064,CLIN,CLIN*6C,1730044036986
NMEA,$PGLOR,2,SVC,GLO,0,3,3,10,061,CLIN,CLIN,062,CLIN,CLIN*68,1730044036986
NMEA,$PGLOR,2,SVC,GAL,0,3,1,10,146,UNKN,UNKN,151,FFUS,FFUS,164,FFUS,FFUS,168,CLIN,CLIN*6D,1730044036986
NMEA,$PGLOR,2,SVC,GAL,0,3,2,10,141,CLIN,CLIN,145,CLIN,CLIN,153,CLIN,CLIN,163,CLIN,CLIN*63,1730044036987
NMEA,$PGLOR,2,SVC,GAL,0,3,3,10,140,CLIN,CLIN,162,CLIN,CLIN*65,1730044036987
NMEA,$PGLOR,2,SIO,TxERR,0,RxERR,0,TxCNT,453,RxCNT,7168,MLFRMPKT,0,DTMS,1026,DTIN,47,63,DTOUT,14,956,HATMD,45*12,1730044036987
NMEA,$PGLOR,2,HLA,154714.98,L,,Al,,A,,H,,,M,,Ac,0,Gr,0,S,,,Sx,,,T,,Tr,,Mn,,Ap,,Ta,0,,,Aa,1,Ga,1,*19,1730044036987
NMEA,$PGLOR,1,LSQ,154714.98,,,,,,,,,,,,,,,,00,,*38,1730044036987
NMEA,$PGLOR,6,PWR,mA,28.1,RFTm,1007,OscTm,1007,MeasTm,1007,UTC,154714.98,GNSSmA,26.8,CPUTm,445,COPTm,57,COPMargTm,169,S*00,1730044036987
NMEA,$PGLOR,3,AGC,G,32.2,R,47.3,B,18.5,E5A,,AL1,24.1,AL5,,LTE,,PM1,,PM5,*03,1730044036987
NMEA,$PSSGR,GSA,A,3,02,10,12,25,28,32,,,,,,,1.5,0.8,1.3,1,1*4E,1730044036987
NMEA,$PSSGR,GSA,A,3,,,,,,,,,,,,,1.5,0.8,1.3,1,8*4B,1730044036987
NMEA,$PSSGR,GSA,A,3,,,,,,,,,,,,,1.5,0.8,1.3,1,9*4A,1730044036987
NMEA,$PSSGR,GSA,A,3,75,76,81,,,,,,,,,,1.5,0.8,1.3,2,1*4B,1730044036988
NMEA,$PSSGR,GSA,A,3,,,,,,,,,,,,,1.5,0.8,1.3,5,1*46,1730044036988
NMEA,$PSSGR,GSA,A,3,,,,,,,,,,,,,1.5,0.8,1.3,5,8*4F,1730044036988
NMEA,$PSSGR,GSA,A,3,,,,,,,,,,,,,1.5,0.8,1.3,5,9*4E,1730044036988
NMEA,$PSSGR,GSA,A,3,,,,,,,,,,,,,1.5,0.8,1.3,4,1*47,1730044036988
NMEA,$PSSGR,GSA,A,3,,,,,,,,,,,,,1.5,0.8,1.3,4,5*43,1730044036988
NMEA,$PSSGR,GSA,A,3,,,,,,,,,,,,,1.5,0.8,1.3,4,3*45,1730044036988
NMEA,$PSSGR,GSA,A,3,108,113,126,,,,,,,,,,1.5,0.8,1.3,3,7*79,1730044036988
NMEA,$PSSGR,GSA,A,3,,,,,,,,,,,,,1.5,0.8,1.3,3,1*40,1730044036988
NMEA,$GPGSV,3,1,10,10,85,062,33,32,66,297,33,23,43,125,26,28,34,205,30*72,1730044036988
NMEA,$GPGSV,3,2,10,21,25,308,25,12,20,087,26,25,19,128,26,02,13,322,24*7E,1730044036988
NMEA,$GPGSV,3,3,10,24,23,048,,31,02,212,*72,1730044036989
NMEA,$GLGSV,3,1,10,66,58,342,21,65,41,068,24,76,40,131,33,75,36,051,31*64,1730044036989
NMEA,$GLGSV,3,2,10,81,32,250,31,82,30,308,,67,19,292,,77,10,169,*65,1730044036989
NMEA,$GLGSV,3,3,10,83,07,343,,88,05,203,*68,1730044036989
NMEA,$GAGSV,3,1,10,108,75,354,31,113,52,238,30,126,31,310,35,130,-1,163,*77,1730044036989
NMEA,$GAGSV,3,2,10,107,35,267,,103,33,065,,115,21,182,,125,19,065,*6A,1730044036989
NMEA,$GAGSV,3,3,10,102,18,118,,124,00,020,*6E,1730044036989
NMEA,$GPGSA,A,3,02,10,12,25,28,32,,,,,,,1.5,0.8,1.3*30,1730044036989
NMEA,$GPGSA,A,3,,,,,,,,,,,,,1.5,0.8,1.3,8*28,1730044036989
NMEA,$GPGSA,A,3,,,,,,,,,,,,,1.5,0.8,1.3,9*29,1730044036989
NMEA,$QZGSA,A,3,,,,,,,,,,,,,1.5,0.8,1.3*20,1730044036990
NMEA,$QZGSA,A,3,,,,,,,,,,,,,1.5,0.8,1.3,8*34,1730044036990
NMEA,$QZGSA,A,3,,,,,,,,,,,,,1.5,0.8,1.3,9*35,1730044036990
NMEA,$BDGSA,A,3,,,,,,,,,,,,,1.5,0.8,1.3*2D,1730044036990
NMEA,$BDGSA,A,3,,,,,,,,,,,,,1.5,0.8,1.3,5*34,1730044036990
NMEA,$BDGSA,A,3,,,,,,,,,,,,,1.5,0.8,1.3,3*32,1730044036990
NMEA,$GAGSA,A,3,108,113,126,,,,,,,,,,1.5,0.8,1.3*12,1730044036990
NMEA,$GAGSA,A,3,,,,,,,,,,,,,1.5,0.8,1.3,1*30,1730044036990
NMEA,$GNGSA,A,3,02,10,12,25,28,32,,,,,,,1.5,0.8,1.3*2E,1730044036990
NMEA,$GNGSA,A,3,75,76,81,,,,,,,,,,1.5,0.8,1.3*28,1730044036991
NMEA,$PGLOR,1,FIX,1.0,1.0*20,1730044036991
NMEA,$GPRMC,154714.98,A,4228.760080,N,08323.570197,W,000.0,,271024,,,A*61,1730044036991
NMEA,$PGLOR,SPL,39241127114716.9,POS,20241027154714.976,42.479335,-83.392837,8,8,0,215,23,1.100000*79,1730044036994
NMEA,$GPGGA,154715.98,4228.762032,N,08323.568891,W,1,13,0.5,248.2,M,-34.6,M,,*54,1730044037993
NMEA,$PGLOR,12,STA,154715.98,0.012,0.500,619,98,4,0,P,F,L,0,C,2,S,00000002,0,3,R,00000000,TPEF,30,7105,LC,,,DR,0,,,,tf,*35,1730044037993
NMEA,$PGLOR,1,UNC,154715.98,201047.044,4.5,20.3,0.84,75.64,4.8,4.8,90.0*2A,1730044037993
NMEA,$PGLOR,2,SAT,5,1,G10,31,17,E08,23,17,G32,27,17,R02,20,17,E13,25,17,G23,14,27*2F,1730044037993
NMEA,$PGLOR,2,SAT,5,2,R01,24,37,R12,28,17,R11,21,37,E07,18,20,G28,22,27,R17,26,37*39,1730044037993
NMEA,$PGLOR,2,SAT,5,3,E26,20,13,G21,19,27,G12,20,23,G25,23,27,G02,14,20,E30,,20*39,1730044037993
NMEA,$PGLOR,2,SAT,5,4,E03,,20,R18,,30,G24,,20,E15,,20,R03,,30,E25,,20*3D,1730044037993
NMEA,$PGLOR,2,SAT,5,5,E02,,20,R13,,30,R19,,30,R24,,30,G31,,20,E24,,20*2C,1730044037994
NMEA,$PGLOR,2,SVC,GPS,0,3,1,10,010,FFUS,FFUS,023,FFUS,FFUS,028,CLIN,CLIN,032,FFUS,FFUS*62,1730044037994
NMEA,$PGLOR,2,SVC,GPS,0,3,2,10,002,CLIN,CLIN,012,FFUS,FFUS,021,FFUS,FFUS,025,FFUS,FFUS*6F,1730044037994
NMEA,$PGLOR,2,SVC,GPS,0,3,3,10,024,CLIN,CLIN,031,CLIN,CLIN*6F,1730044037994
NMEA,$PGLOR,2,SVC,GLO,0,3,1,10,055,CLIN,CLIN,058,CLIN,CLIN,059,FFUS,FFUS,060,FFUS,FFUS*6E,1730044037994
NMEA,$PGLOR,2,SVC,GLO,0,3,2,10,056,FFUS,FFUS,057,CLIN,CLIN,063,CLIN,CLIN,064,CLIN,CLIN*6C,1730044037994
NMEA,$PGLOR,2,SVC,GLO,0,3,3,10,061,CLIN,CLIN,062,CLIN,CLIN*68,1730044037994
NMEA,$PGLOR,2,SVC,GAL,0,3,1,10,145,FFUS,FFUS,146,FFUS,FFUS,151,UNKN,UNKN,164,FFUS,FFUS*62,1730044037994
NMEA,$PGLOR,2,SVC,GAL,0,3,2,10,141,CLIN,CLIN,153,CLIN,CLIN,163,CLIN,CLIN,168,CLIN,CLIN*6C,1730044037994
NMEA,$PGLOR,2,SVC,GAL,0,3,3,10,140,CLIN,CLIN,162,CLIN,CLIN*65,1730044037994
NMEA,$PGLOR,2,SIO,TxERR,0,RxERR,0,TxCNT,418,RxCNT,7680,MLFRMPKT,0,DTMS,1006,DTIN,48,59,DTOUT,19,952,HATMD,51*14,1730044037994
NMEA,$PGLOR,2,HLA,154715.98,L,,Al,,A,,H,,,M,,Ac,0,Gr,0,S,,,Sx,,,T,,Tr,,Mn,,Ap,,Ta,0,,,Aa,1,Ga,1,*18,1730044037994
NMEA,$PGLOR,1,LSQ,154715.98,,,,,,,,,,,,,,,,00,,*39,1730044037994
NMEA,$PGLOR,6,PWR,mA,26.6,RFTm,1004,OscTm,1004,MeasTm,1004,UTC,154715.98,GNSSmA,25.3,CPUTm,374,COPTm,67,COPMargTm,167,S*00,1730044037994
NMEA,$PGLOR,3,AGC,G,31.9,R,48.7,B,18.5,E5A,,AL1,24.1,AL5,,LTE,,PM1,,PM5,*00,1730044037995
NMEA,$PSSGR,GSA,A,3,10,21,23,25,28,32,,,,,,,1.8,0.9,1.5,1,1*47,1730044037995
NMEA,$PSSGR,GSA,A,3,,,,,,,,,,,,,1.8,0.9,1.5,1,8*41,1730044037995
NMEA,$PSSGR,GSA,A,3,,,,,,,,,,,,,1.8,0.9,1.5,1,9*40,1730044037995
NMEA,$PSSGR,GSA,A,3,65,66,75,76,81,,,,,,,,1.8,0.9,1.5,2,1*42,1730044037995
NMEA,$PSSGR,GSA,A,3,,,,,,,,,,,,,1.8,0.9,1.5,5,1*4C,1730044037995
NMEA,$PSSGR,GSA,A,3,,,,,,,,,,,,,1.8,0.9,1.5,5,8*45,1730044037995
NMEA,$PSSGR,GSA,A,3,,,,,,,,,,,,,1.8,0.9,1.5,5,9*44,1730044037995
NMEA,$PSSGR,GSA,A,3,,,,,,,,,,,,,1.8,0.9,1.5,4,1*4D,1730044037995
NMEA,$PSSGR,GSA,A,3,,,,,,,,,,,,,1.8,0.9,1.5,4,5*49,1730044037995
NMEA,$PSSGR,GSA,A,3,,,,,,,,,,,,,1.8,0.9,1.5,4,3*4F,1730044037995
NMEA,$PSSGR,GSA,A,3,108,113,,,,,,,,,,,1.8,0.9,1.5,3,7*46,1730044037995
NMEA,$PSSGR,GSA,A,3,,,,,,,,,,,,,1.8,0.9,1.5,3,1*4A,1730044037995
NMEA,$GPGSV,3,1,10,10,85,063,35,32,66,297,33,23,43,125,25,28,34,205,29*7E,1730044037995
NMEA,$GPGSV,3,2,10,21,25,308,25,12,20,087,26,25,19,128,27,02,13,322,23*78,1730044037995
NMEA,$GPGSV,3,3,10,24,23,048,,31,02,212,*72,1730044037996
NMEA,$GLGSV,3,1,10,66,58,342,24,65,41,068,28,76,40,131,33,75,36,051,30*6C,1730044037996
NMEA,$GLGSV,3,2,10,81,32,250,31,82,30,308,,67,19,292,,77,10,169,*65,1730044037996
NMEA,$GLGSV,3,3,10,83,07,343,,88,05,203,*68,1730044037996
NMEA,$GAGSV,3,1,10,108,75,354,31,113,52,238,30,107,35,267,22,126,31,310,34*6F,1730044037996
NMEA,$GAGSV,3,2,10,130,-1,163,,103,33,065,,115,21,182,,125,19,065,*73,1730044037996
NMEA,$GAGSV,3,3,10,102,18,118,,124,00,020,*6E,1730044037996
NMEA,$GPGSA,A,3,10,21,23,25,28,32,,,,,,,1.8,0.9,1.5*39,1730044037996
NMEA,$GPGSA,A,3,,,,,,,,,,,,,1.8,0.9,1.5,8*22,1730044037996
NMEA,$GPGSA,A,3,,,,,,,,,,,,,1.8,0.9,1.5,9*23,1730044037996
NMEA,$QZGSA,A,3,,,,,,,,,,,,,1.8,0.9,1.5*2A,1730044037996
NMEA,$QZGSA,A,3,,,,,,,,,,,,,1.8,0.9,1.5,8*3E,1730044037996
NMEA,$QZGSA,A,3,,,,,,,,,,,,,1.8,0.9,1.5,9*3F,1730044037996
NMEA,$BDGSA,A,3,,,,,,,,,,,,,1.8,0.9,1.5*27,1730044037996
NMEA,$BDGSA,A,3,,,,,,,,,,,,,1.8,0.9,1.5,5*3E,1730044037996
NMEA,$BDGSA,A,3,,,,,,,,,,,,,1.8,0.9,1.5,3*38,1730044037997
NMEA,$GAGSA,A,3,108,113,,,,,,,,,,,1.8,0.9,1.5*2D,1730044037997
NMEA,$GAGSA,A,3,,,,,,,,,,,,,1.8,0.9,1.5,1*3A,1730044037997
NMEA,$GNGSA,A,3,10,21,23,25,28,32,,,,,,,1.8,0.9,1.5*27,1730044037997
NMEA,$GNGSA,A,3,65,66,75,76,81,,,,,,,,1.8,0.9,1.5*21,1730044037997
NMEA,$PGLOR,1,FIX,1.0,1.0*20,1730044037997
NMEA,$GPRMC,154715.98,A,4228.762032,N,08323.568891,W,000.0,,271024,,,A*6D,1730044037997
NMEA,$PGLOR,SPL,39241127114717.9,POS,20241027154715.976,42.479367,-83.392815,5,5,0,214,20,1.100000*7C,1730044037997
NMEA,$GPGGA,154716.98,4228.761717,N,08323.568821,W,1,16,0.5,248.5,M,-34.6,M,,*5D,1730044039020
NMEA,$PGLOR,12,STA,154716.98,-0.001,0.500,619,98,4,0,P,F,L,0,C,2,S,00000002,0,3,R,00000000,TPEF,30,8105,LC,,,DR,0,,,,tf*00,1730044039020
NMEA,$PGLOR,1,UNC,154716.98,201047.044,4.6,83.1,0.82,132.58,4.9,4.9,90.0*1A,1730044039020
NMEA,$PGLOR,2,SAT,5,1,G10,31,17,E08,22,13,G32,26,17,R02,23,17,E13,24,17,G23,14,27*29,1730044039020
NMEA,$PGLOR,2,SAT,5,2,R01,23,37,R12,27,17,R11,18,37,E07,17,20,G28,21,27,R17,26,37*37,1730044039020
NMEA,$PGLOR,2,SAT,5,3,E26,19,13,R18,21,37,G21,19,27,G12,16,27,G25,23,27,E25,23,27*2E,1730044039020
NMEA,$PGLOR,2,SAT,5,4,G02,13,27,E30,,20,E03,,20,G24,,20,E15,,20,R03,,30*23,1730044039020
NMEA,$PGLOR,2,SAT,5,5,E02,,20,R13,,30,R19,,30,R24,,30,G31,,20,E24,,20*2C,1730044039020
NMEA,$PGLOR,2,SVC,GPS,0,3,1,10,010,FFUS,FFUS,023,FFUS,FFUS,028,FFUS,FFUS,032,FFUS,FFUS*62,1730044039020
NMEA,$PGLOR,2,SVC,GPS,0,3,2,10,002,FFUS,FFUS,012,UNKN,UNKN,021,FFUS,FFUS,025,CLIN,CLIN*6F,1730044039020
NMEA,$PGLOR,2,SVC,GPS,0,3,3,10,024,CLIN,CLIN,031,CLIN,CLIN*6F,1730044039020
NMEA,$PGLOR,2,SVC,GLO,0,3,1,10,055,FFUS,FFUS,058,FFUS,FFUS,059,FFUS,FFUS,060,FFUS,FFUS*6E,1730044039020
NMEA,$PGLOR,2,SVC,GLO,0,3,2,10,056,FFUS,FFUS,057,UNKN,UNKN,063,CLIN,CLIN,064,CLIN,CLIN*6C,1730044039020
NMEA,$PGLOR,2,SVC,GLO,0,3,3,10,061,CLIN,CLIN,062,CLIN,CLIN*68,1730044039021
NMEA,$PGLOR,2,SVC,GAL,0,3,1,10,145,FFUS,FFUS,146,FFUS,FFUS,151,CLIN,CLIN,164,UNKN,UNKN*62,1730044039021
NMEA,$PGLOR,2,SVC,GAL,0,3,2,10,141,UNKN,UNKN,153,CLIN,CLIN,163,CLIN,CLIN,168,CLIN,CLIN*6C,1730044039021
NMEA,$PGLOR,2,SVC,GAL,0,3,3,10,140,CLIN,CLIN,162,CLIN,CLIN*65,1730044039021
NMEA,$PGLOR,2,SIO,TxERR,0,RxERR,0,TxCNT,668,RxCNT,7172,MLFRMPKT,0,DTMS,1006,DTIN,39,49,DTOUT,21,952,HATMD,57*11,1730044039021
NMEA,$PGLOR,2,HLA,154716.98,L,,Al,,A,,H,,,M,,Ac,0,Gr,0,S,,,Sx,,,T,,Tr,,Mn,,Ap,,Ta,0,,,Aa,1,Ga,1,*1B,1730044039021
NMEA,$PGLOR,1,LSQ,154716.98,,,,,,,,,,,,,,,,00,,*3A,1730044039021
NMEA,$PGLOR,6,PWR,mA,26.4,RFTm,999,OscTm,999,MeasTm,999,UTC,154716.98,GNSSmA,25.1,CPUTm,365,COPTm,71,COPMargTm,168,Srch*00,1730044039021
NMEA,$PGLOR,3,AGC,G,32.0,R,47.3,B,18.5,E5A,,AL1,24.1,AL5,,LTE,,PM1,,PM5,*01,1730044039021
NMEA,$PSSGR,GSA,A,3,02,10,12,21,23,25,28,32,,,,,1.8,1.0,1.5,1,1*4E,1730044039021
NMEA,$PSSGR,GSA,A,3,,,,,,,,,,,,,1.8,1.0,1.5,1,8*49,1730044039021
NMEA,$PSSGR,GSA,A,3,,,,,,,,,,,,,1.8,1.0,1.5,1,9*48,1730044039021
NMEA,$PSSGR,GSA,A,3,65,66,75,76,81,82,,,,,,,1.8,1.0,1.5,2,1*40,1730044039021
NMEA,$PSSGR,GSA,A,3,,,,,,,,,,,,,1.8,1.0,1.5,5,1*44,1730044039021
NMEA,$PSSGR,GSA,A,3,,,,,,,,,,,,,1.8,1.0,1.5,5,8*4D,1730044039021
NMEA,$PSSGR,GSA,A,3,,,,,,,,,,,,,1.8,1.0,1.5,5,9*4C,1730044039022
NMEA,$PSSGR,GSA,A,3,,,,,,,,,,,,,1.8,1.0,1.5,4,1*45,1730044039022
NMEA,$PSSGR,GSA,A,3,,,,,,,,,,,,,1.8,1.0,1.5,4,5*41,1730044039022
NMEA,$PSSGR,GSA,A,3,,,,,,,,,,,,,1.8,1.0,1.5,4,3*47,1730044039022
NMEA,$PSSGR,GSA,A,3,113,125,,,,,,,,,,,1.8,1.0,1.5,3,7*41,1730044039022
NMEA,$PSSGR,GSA,A,3,,,,,,,,,,,,,1.8,1.0,1.5,3,1*42,1730044039022
NMEA,$GPGSV,3,1,10,10,85,063,35,32,66,297,33,23,43,125,24,28,34,205,29*7F,1730044039022
NMEA,$GPGSV,3,2,10,21,25,308,24,12,20,087,25,25,19,128,27,02,13,322,23*7A,1730044039022
NMEA,$GPGSV,3,3,10,24,23,048,,31,02,212,*72,1730044039022
NMEA,$GLGSV,3,1,10,66,58,342,27,65,41,068,28,76,40,131,33,75,36,051,30*6F,1730044039022
NMEA,$GLGSV,3,2,10,81,32,250,31,82,30,308,25,67,19,292,,77,10,169,*62,1730044039022
NMEA,$GLGSV,3,3,10,83,07,343,,88,05,203,*68,1730044039022
NMEA,$GAGSV,3,1,10,108,75,354,30,113,52,238,30,107,35,267,22,126,31,310,33*69,1730044039022
NMEA,$GAGSV,3,2,10,125,19,065,27,130,-1,163,,103,33,065,,115,21,182,*76,1730044039022
NMEA,$GAGSV,3,3,10,102,18,118,,124,00,020,*6E,1730044039022
NMEA,$GPGSA,A,3,02,10,12,21,23,25,28,32,,,,,1.8,1.0,1.5*30,1730044039023
NMEA,$GPGSA,A,3,,,,,,,,,,,,,1.8,1.0,1.5,8*2A,1730044039023
NMEA,$GPGSA,A,3,,,,,,,,,,,,,1.8,1.0,1.5,9*2B,1730044039023
NMEA,$QZGSA,A,3,,,,,,,,,,,,,1.8,1.0,1.5*22,1730044039023
NMEA,$QZGSA,A,3,,,,,,,,,,,,,1.8,1.0,1.5,8*36,1730044039023
NMEA,$QZGSA,A,3,,,,,,,,,,,,,1.8,1.0,1.5,9*37,1730044039023
NMEA,$BDGSA,A,3,,,,,,,,,,,,,1.8,1.0,1.5*2F,1730044039023
NMEA,$BDGSA,A,3,,,,,,,,,,,,,1.8,1.0,1.5,5*36,1730044039023
NMEA,$BDGSA,A,3,,,,,,,,,,,,,1.8,1.0,1.5,3*30,1730044039023
NMEA,$GAGSA,A,3,113,125,,,,,,,,,,,1.8,1.0,1.5*2A,1730044039023
NMEA,$GAGSA,A,3,,,,,,,,,,,,,1.8,1.0,1.5,1*32,1730044039023
NMEA,$GNGSA,A,3,02,10,12,21,23,25,28,32,,,,,1.8,1.0,1.5*2E,1730044039023
NMEA,$GNGSA,A,3,65,66,75,76,81,82,,,,,,,1.8,1.0,1.5*23,1730044039023
NMEA,$PGLOR,1,FIX,1.0,1.0*20,1730044039023
NMEA,$GPRMC,154716.98,A,4228.761717,N,08323.568821,W,000.0,,271024,,,A*66,1730044039023
NMEA,$PGLOR,SPL,39241127114719.0,POS,20241027154716.976,42.479362,-83.392814,5,5,0,214,83,1.100000*75,1730044039024
NMEA,$GPGGA,154717.98,4228.761679,N,08323.569212,W,1,16,0.3,249.0,M,-34.6,M,,*5C,1730044040006
NMEA,$PGLOR,12,STA,154717.98,-0.005,0.500,619,98,3,0,P,F,L,0,C,2,S,00000002,0,3,R,00000000,TPEF,27,9105,LC,,,DR,0,,,,tf*00,1730044040007
NMEA,$PGLOR,1,UNC,154717.98,201047.044,3.3,82.6,0.94,180.00,3.5,3.5,90.0*1C,1730044040007
NMEA,$PGLOR,2,SAT,5,1,G10,31,17,E08,21,17,G32,26,17,R02,23,17,E13,24,17,G23,13,27*29,1730044040007
NMEA,$PGLOR,2,SAT,5,2,R01,23,37,R12,28,17,R11,19,37,E07,16,20,G28,18,27,R17,27,37*33,1730044040007
NMEA,$PGLOR,2,SAT,5,3,E26,19,13,R18,22,37,G21,21,27,G24,15,21,G12,12,27,G25,24,27*25,1730044040007
NMEA,$PGLOR,2,SAT,5,4,E25,21,20,G02,14,27,E03,,20,E15,,20,R03,,30,E02,,20*25,1730044040007
NMEA,$PGLOR,2,SAT,5,5,R13,,30,R19,,30,R24,,30*43,1730044040007
NMEA,$PGLOR,2,SVC,GPS,0,3,1,09,010,FFUS,FFUS,023,FFUS,FFUS,028,FFUS,FFUS,032,FFUS,FFUS*6A,1730044040007
NMEA,$PGLOR,2,SVC,GPS,0,3,2,09,012,FFUS,FFUS,021,UNKN,UNKN,024,FFUS,FFUS,025,FFUS,FFUS*63,1730044040007
NMEA,$PGLOR,2,SVC,GPS,0,3,3,09,002,FFUS,FFUS*7D,1730044040007
NMEA,$PGLOR,2,SVC,GLO,0,3,1,10,055,FFUS,FFUS,058,FFUS,FFUS,059,FFUS,FFUS,060,FFUS,FFUS*6E,1730044040007
NMEA,$PGLOR,2,SVC,GLO,0,3,2,10,056,FFUS,FFUS,057,FFUS,FFUS,063,CLIN,CLIN,064,CLIN,CLIN*6C,1730044040008
NMEA,$PGLOR,2,SVC,GLO,0,3,3,10,061,CLIN,CLIN,062,CLIN,CLIN*68,1730044040008
NMEA,$PGLOR,2,SVC,GAL,0,2,1,08,145,UNKN,UNKN,146,FFUS,FFUS,151,CLIN,CLIN,164,UNKN,UNKN*6A,1730044040008
NMEA,$PGLOR,2,SVC,GAL,0,2,2,08,140,FFUS,FFUS,141,CLIN,CLIN,153,CLIN,CLIN,163,CLIN,CLIN*6E,1730044040008
NMEA,$PGLOR,2,SIO,TxERR,0,RxERR,0,TxCNT,451,RxCNT,7812,MLFRMPKT,0,DTMS,1002,DTIN,64,76,DTOUT,18,927,HATMD,59*10,1730044040008
NMEA,$PGLOR,2,HLA,154717.98,L,,Al,,A,,H,,,M,,Ac,0,Gr,0,S,,,Sx,,,T,,Tr,,Mn,,Ap,,Ta,0,,,Aa,1,Ga,1,*1A,1730044040008
NMEA,$PGLOR,1,LSQ,154717.98,,,,,,,,,,,,,,,,00,,*3B,1730044040008
NMEA,$PGLOR,6,PWR,mA,27.7,RFTm,1002,OscTm,1002,MeasTm,1002,UTC,154717.98,GNSSmA,26.4,CPUTm,376,COPTm,77,COPMargTm,164,S*00,1730044040009
NMEA,$PGLOR,3,AGC,G,30.8,R,49.2,B,18.5,E5A,,AL1,21.6,AL5,,LTE,,PM1,,PM5,*06,1730044040009
NMEA,$PSSGR,GSA,A,3,02,10,12,21,23,25,28,32,,,,,1.8,1.0,1.5,1,1*4E,1730044040009
NMEA,$PSSGR,GSA,A,3,,,,,,,,,,,,,1.8,1.0,1.5,1,8*49,1730044040009
NMEA,$PSSGR,GSA,A,3,,,,,,,,,,,,,1.8,1.0,1.5,1,9*48,1730044040009
NMEA,$PSSGR,GSA,A,3,65,66,75,76,81,82,,,,,,,1.8,1.0,1.5,2,1*40,1730044040009
NMEA,$PSSGR,GSA,A,3,,,,,,,,,,,,,1.8,1.0,1.5,5,1*44,1730044040009
NMEA,$PSSGR,GSA,A,3,,,,,,,,,,,,,1.8,1.0,1.5,5,8*4D,1730044040009
NMEA,$PSSGR,GSA,A,3,,,,,,,,,,,,,1.8,1.0,1.5,5,9*4C,1730044040009
NMEA,$PSSGR,GSA,A,3,,,,,,,,,,,,,1.8,1.0,1.5,4,1*45,1730044040009
NMEA,$PSSGR,GSA,A,3,,,,,,,,,,,,,1.8,1.0,1.5,4,5*41,1730044040009
NMEA,$PSSGR,GSA,A,3,,,,,,,,,,,,,1.8,1.0,1.5,4,3*47,1730044040009
NMEA,$PSSGR,GSA,A,3,108,113,,,,,,,,,,,1.8,1.0,1.5,3,7*4E,1730044040010
NMEA,$PSSGR,GSA,A,3,,,,,,,,,,,,,1.8,1.0,1.5,3,1*42,1730044040010
NMEA,$GPGSV,3,1,09,10,85,063,35,32,66,297,32,23,43,125,24,28,34,205,28*77,1730044040010
NMEA,$GPGSV,3,2,09,21,25,308,25,24,23,048,19,12,20,087,24,25,19,128,28*7C,1730044040010
NMEA,$GPGSV,3,3,09,02,13,322,22*43,1730044040010
NMEA,$GLGSV,3,1,10,66,58,342,27,65,41,068,28,76,40,131,32,75,36,051,29*66,1730044040010
NMEA,$GLGSV,3,2,10,81,32,250,31,82,30,308,26,67,19,292,,77,10,169,*61,1730044040010
NMEA,$GLGSV,3,3,10,83,07,343,,88,05,203,*68,1730044040010
NMEA,$GAGSV,2,1,08,108,75,354,30,113,52,238,30,107,35,267,22,126,31,310,32*60,1730044040010
NMEA,$GAGSV,2,2,08,125,19,065,27,103,33,065,,115,21,182,,102,18,118,*66,1730044040010
NMEA,$GPGSA,A,3,02,10,12,21,23,25,28,32,,,,,1.8,1.0,1.5*30,1730044040010
NMEA,$GPGSA,A,3,,,,,,,,,,,,,1.8,1.0,1.5,8*2A,1730044040010
NMEA,$GPGSA,A,3,,,,,,,,,,,,,1.8,1.0,1.5,9*2B,1730044040011
NMEA,$QZGSA,A,3,,,,,,,,,,,,,1.8,1.0,1.5*22,1730044040011
NMEA,$QZGSA,A,3,,,,,,,,,,,,,1.8,1.0,1.5,8*36,1730044040011
NMEA,$QZGSA,A,3,,,,,,,,,,,,,1.8,1.0,1.5,9*37,1730044040011
NMEA,$BDGSA,A,3,,,,,,,,,,,,,1.8,1.0,1.5*2F,1730044040011
NMEA,$BDGSA,A,3,,,,,,,,,,,,,1.8,1.0,1.5,5*36,1730044040011
NMEA,$BDGSA,A,3,,,,,,,,,,,,,1.8,1.0,1.5,3*30,1730044040011
NMEA,$GAGSA,A,3,108,113,,,,,,,,,,,1.8,1.0,1.5*25,1730044040011
NMEA,$GAGSA,A,3,,,,,,,,,,,,,1.8,1.0,1.5,1*32,1730044040011
NMEA,$GNGSA,A,3,02,10,12,21,23,25,28,32,,,,,1.8,1.0,1.5*2E,1730044040011
NMEA,$GNGSA,A,3,65,66,75,76,81,82,,,,,,,1.8,1.0,1.5*23,1730044040011
NMEA,$PGLOR,1,FIX,1.0,1.0*20,1730044040011
NMEA,$GPRMC,154717.98,A,4228.761679,N,08323.569212,W,000.0,,271024,,,A*65,1730044040011
NMEA,$PGLOR,SPL,39241127114720.0,POS,20241027154717.976,42.479361,-83.392820,3,3,0,214,83,1.100000*7A,1730044040012
NMEA,$GPGGA,154718.98,4228.761487,N,08323.569062,W,1,16,1.0,249.7,M,-34.6,M,,*50,1730044041010
NMEA,$PGLOR,12,STA,154718.98,0.002,0.500,619,98,10,0,P,F,L,0,C,2,S,00000002,0,3,R,00000000,TPEF,27,10105,LC,,,DR,0,,,,t*00,1730044041010
NMEA,$PGLOR,1,UNC,154718.98,201047.044,10.1,73.5,0.85,180.00,10.7,10.7,90.0*2E,1730044041010
NMEA,$PGLOR,2,SAT,5,1,G10,30,17,E08,20,17,G32,26,17,R02,23,17,E13,22,17,G23,12,20*29,1730044041010
NMEA,$PGLOR,2,SAT,5,2,R01,23,37,R12,27,17,R11,18,37,E07,16,20,G28,20,27,R17,26,37*37,1730044041010
NMEA,$PGLOR,2,SAT,5,3,E26,19,15,R18,23,37,G21,21,27,G24,16,20,G12,13,27,G25,23,27*26,1730044041010
NMEA,$PGLOR,2,SAT,5,4,E25,19,23,G02,14,27,E03,,20,E15,,20,R03,,30,E02,,20*2D,1730044041010
NMEA,$PGLOR,2,SAT,5,5,R13,,30,R19,,30,R24,,30*43,1730044041011
NMEA,$PGLOR,2,SVC,GPS,0,3,1,09,010,FFUS,FFUS,023,FFUS,FFUS,028,FFUS,FFUS,032,FFUS,FFUS*6A,1730044041011
NMEA,$PGLOR,2,SVC,GPS,0,3,2,09,012,FFUS,FFUS,021,UNKN,LOME,024,FFUS,FFUS,025,FFUS,FFUS*76,1730044041011
NMEA,$PGLOR,2,SVC,GPS,0,3,3,09,002,FFUS,FFUS*7D,1730044041011
NMEA,$PGLOR,2,SVC,GLO,0,3,1,10,055,FFUS,FFUS,058,FFUS,FFUS,059,FFUS,FFUS,060,FFUS,FFUS*6E,1730044041011
NMEA,$PGLOR,2,SVC,GLO,0,3,2,10,056,FFUS,FFUS,057,FFUS,FFUS,063,CLIN,CLIN,064,CLIN,CLIN*6C,1730044041011
NMEA,$PGLOR,2,SVC,GLO,0,3,3,10,061,CLIN,CLIN,062,CLIN,CLIN*68,1730044041011
NMEA,$PGLOR,2,SVC,GAL,0,2,1,08,145,FFUS,FFUS,146,FFUS,FFUS,151,CLIN,CLIN,164,UNKN,UNKN*6A,1730044041011
NMEA,$PGLOR,2,SVC,GAL,0,2,2,08,140,CLIN,CLIN,141,CLIN,CLIN,153,CLIN,CLIN,163,CLIN,CLIN*6E,1730044041011
NMEA,$PGLOR,2,SIO,TxERR,0,RxERR,0,TxCNT,450,RxCNT,7860,MLFRMPKT,0,DTMS,999,DTIN,49,60,DTOUT,16,941,HATMD,58*29,1730044041011
NMEA,$PGLOR,2,HLA,154718.98,L,,Al,,A,,H,,,M,,Ac,0,Gr,0,S,,,Sx,,,T,,Tr,,Mn,,Ap,,Ta,0,,,Aa,1,Ga,1,*15,1730044041011
NMEA,$PGLOR,1,LSQ,154718.98,,,,,,,,,,,,,,,,00,,*34,1730044041011
NMEA,$PGLOR,6,PWR,mA,28.2,RFTm,1001,OscTm,1001,MeasTm,1001,UTC,154718.98,GNSSmA,26.9,CPUTm,374,COPTm,78,COPMargTm,163,S*00,1730044041011
NMEA,$PGLOR,2,PFM,HAL,-,0,0,0,0,RF,-,-180,66.7,0,RTC,,P,STO,P,LTO,P,SW,P,,,OSC,U,U,*42,1730044041011
NMEA,$PGLOR,3,AGC,G,32.8,R,48.7,B,18.5,E5A,,AL1,24.1,AL5,,LTE,,PM1,,PM5,*02,1730044041012
NMEA,$PSSGR,GSA,A,3,02,10,12,21,25,28,32,,,,,,2.1,1.3,1.6,1,1*45,1730044041012
NMEA,$PSSGR,GSA,A,3,,,,,,,,,,,,,2.1,1.3,1.6,1,8*43,1730044041012
NMEA,$PSSGR,GSA,A,3,,,,,,,,,,,,,2.1,1.3,1.6,1,9*42,1730044041012
NMEA,$PSSGR,GSA,A,3,65,66,75,76,81,82,,,,,,,2.1,1.3,1.6,2,1*4A,1730044041012
NMEA,$PSSGR,GSA,A,3,,,,,,,,,,,,,2.1,1.3,1.6,5,1*4E,1730044041012
NMEA,$PSSGR,GSA,A,3,,,,,,,,,,,,,2.1,1.3,1.6,5,8*47,1730044041012
NMEA,$PSSGR,GSA,A,3,,,,,,,,,,,,,2.1,1.3,1.6,5,9*46,1730044041012
NMEA,$PSSGR,GSA,A,3,,,,,,,,,,,,,2.1,1.3,1.6,4,1*4F,1730044041012
NMEA,$PSSGR,GSA,A,3,,,,,,,,,,,,,2.1,1.3,1.6,4,5*4B,1730044041012
NMEA,$PSSGR,GSA,A,3,,,,,,,,,,,,,2.1,1.3,1.6,4,3*4D,1730044041012
NMEA,$PSSGR,GSA,A,3,108,113,126,,,,,,,,,,2.1,1.3,1.6,3,7*71,1730044041012
NMEA,$PSSGR,GSA,A,3,,,,,,,,,,,,,2.1,1.3,1.6,3,1*48,1730044041012
NMEA,$GPGSV,3,1,09,10,85,063,35,32,66,297,32,23,43,125,23,28,34,205,28*70,1730044041012
NMEA,$GPGSV,3,2,09,21,25,308,25,24,23,048,20,12,20,087,24,25,19,128,28*76,1730044041013
NMEA,$GPGSV,3,3,09,02,13,322,22*43,1730044041013
NMEA,$GLGSV,3,1,10,66,58,342,27,65,41,068,28,76,40,131,32,75,36,051,28*67,1730044041013
NMEA,$GLGSV,3,2,10,81,32,250,31,82,30,308,27,67,19,292,,77,10,169,*60,1730044041013
NMEA,$GLGSV,3,3,10,83,07,343,,88,05,203,*68,1730044041013
NMEA,$GAGSV,2,1,08,108,75,354,29,113,52,238,29,107,35,267,21,126,31,310,31*60,1730044041013
NMEA,$GAGSV,2,2,08,125,19,065,27,103,33,065,,115,21,182,,102,18,118,*66,1730044041013
NMEA,$GPGSA,A,3,02,10,12,21,25,28,32,,,,,,2.1,1.3,1.6*3B,1730044041013
NMEA,$GPGSA,A,3,,,,,,,,,,,,,2.1,1.3,1.6,8*20,1730044041013
NMEA,$GPGSA,A,3,,,,,,,,,,,,,2.1,1.3,1.6,9*21,1730044041013
NMEA,$QZGSA,A,3,,,,,,,,,,,,,2.1,1.3,1.6*28,1730044041013
NMEA,$QZGSA,A,3,,,,,,,,,,,,,2.1,1.3,1.6,8*3C,1730044041013
NMEA,$QZGSA,A,3,,,,,,,,,,,,,2.1,1.3,1.6,9*3D,1730044041013
NMEA,$BDGSA,A,3,,,,,,,,,,,,,2.1,1.3,1.6*25,1730044041013
NMEA,$BDGSA,A,3,,,,,,,,,,,,,2.1,1.3,1.6,5*3C,1730044041014
NMEA,$BDGSA,A,3,,,,,,,,,,,,,2.1,1.3,1.6,3*3A,1730044041014
NMEA,$GAGSA,A,3,108,113,126,,,,,,,,,,2.1,1.3,1.6*1A,1730044041014
NMEA,$GAGSA,A,3,,,,,,,,,,,,,2.1,1.3,1.6,1*38,1730044041014
NMEA,$GNGSA,A,3,02,10,12,21,25,28,32,,,,,,2.1,1.3,1.6*25,1730044041014
NMEA,$GNGSA,A,3,65,66,75,76,81,82,,,,,,,2.1,1.3,1.6*29,1730044041014
NMEA,$PGLOR,1,FIX,1.0,1.0*20,1730044041014
NMEA,$GPRMC,154718.98,A,4228.761487,N,08323.569062,W,000.0,,271024,,,A*6C,1730044041014
NMEA,$PGLOR,SPL,39241127114721.0,POS,20241027154718.976,42.479358,-83.392818,10,10,0,215,73,1.100000*7B,1730044041015
NMEA,$GPGGA,154719.98,4228.761245,N,08323.568981,W,1,16,1.0,251.2,M,-34.6,M,,*50,1730044042010
NMEA,$PGLOR,12,STA,154719.98,-0.001,0.001,617,98,9,0,P,F,L,0,C,2,S,00000002,0,3,R,00000000,TPEF,27,11105,LC,,,DR,0,,,,t*00,1730044042010
NMEA,$PGLOR,1,UNC,154719.98,1011.000,9.5,39.5,0.80,180.00,10.1,10.1,90.0*19,1730044042010
NMEA,$PGLOR,2,SAT,5,1,G10,31,17,E08,20,17,G32,27,17,R02,23,17,E13,22,15,G23,13,20*2A,1730044042010
NMEA,$PGLOR,2,SAT,5,2,R01,23,37,R12,28,17,R11,18,37,E07,16,20,G28,19,27,R17,26,37*32,1730044042010
NMEA,$PGLOR,2,SAT,5,3,E26,19,17,R18,23,37,G21,20,27,G24,18,27,G12,13,23,G25,24,27*2F,1730044042010
NMEA,$PGLOR,2,SAT,5,4,E25,20,27,G02,14,23,E03,,20,E15,,20,R03,,30,E02,,20*27,1730044042011
NMEA,$PGLOR,2,SAT,5,5,R13,,30,R19,,30,R24,,30*43,1730044042011
NMEA,$PGLOR,2,SVC,GPS,0,3,1,09,010,FFUS,FFUS,023,FFUS,FFUS,028,CLIN,CLIN,032,FFUS,FFUS*6A,1730044042011
NMEA,$PGLOR,2,SVC,GPS,0,3,2,09,012,FFUS,FFUS,021,CLIN,CLIN,024,FFUS,FFUS,025,FFUS,FFUS*63,1730044042011
NMEA,$PGLOR,2,SVC,GPS,0,3,3,09,002,FFUS,FFUS*7D,1730044042011
NMEA,$PGLOR,2,SVC,GLO,0,3,1,10,055,FFUS,FFUS,058,FFUS,FFUS,059,FFUS,FFUS,060,FFUS,FFUS*6E,1730044042011
NMEA,$PGLOR,2,SVC,GLO,0,3,2,10,056,FFUS,FFUS,057,FFUS,FFUS,063,CLIN,CLIN,064,CLIN,CLIN*6C,1730044042011
NMEA,$PGLOR,2,SVC,GLO,0,3,3,10,061,CLIN,CLIN,062,CLIN,CLIN*68,1730044042011
NMEA,$PGLOR,2,SVC,GAL,0,2,1,08,145,FFUS,FFUS,146,FFUS,FFUS,151,CLIN,CLIN,164,FFUS,FFUS*6A,1730044042011
NMEA,$PGLOR,2,SVC,GAL,0,2,2,08,140,UNKN,UNKN,141,CLIN,CLIN,153,CLIN,CLIN,163,CLIN,CLIN*6E,1730044042011
NMEA,$PGLOR,2,SIO,TxERR,0,RxERR,0,TxCNT,439,RxCNT,8096,MLFRMPKT,0,DTMS,1004,DTIN,49,58,DTOUT,16,942,HATMD,62*15,1730044042011
NMEA,$PGLOR,2,HLA,154719.98,L,,Al,,A,,H,,,M,,Ac,0,Gr,0,S,,,Sx,,,T,,Tr,,Mn,,Ap,,Ta,0,,,Aa,1,Ga,1,*14,1730044042011
NMEA,$PGLOR,1,LSQ,154719.98,,,,,,,,,,,,,,,,00,,*35,1730044042011
NMEA,$PGLOR,6,PWR,mA,28.2,RFTm,999,OscTm,999,MeasTm,999,UTC,154719.98,GNSSmA,26.9,CPUTm,373,COPTm,77,COPMargTm,163,Srch*00,1730044042012
NMEA,$PGLOR,3,AGC,G,31.0,R,46.6,B,18.5,E5A,,AL1,24.1,AL5,,LTE,,PM1,,PM5,*06,1730044042012
NMEA,$PSSGR,GSA,A,3,10,21,24,25,28,32,,,,,,,1.7,0.8,1.5,1,1*4E,1730044042012
NMEA,$PSSGR,GSA,A,3,,,,,,,,,,,,,1.7,0.8,1.5,1,8*4F,1730044042012
NMEA,$PSSGR,GSA,A,3,,,,,,,,,,,,,1.7,0.8,1.5,1,9*4E,1730044042012
NMEA,$PSSGR,GSA,A,3,65,66,75,76,81,82,,,,,,,1.7,0.8,1.5,2,1*46,1730044042012
NMEA,$PSSGR,GSA,A,3,,,,,,,,,,,,,1.7,0.8,1.5,5,1*42,1730044042012
NMEA,$PSSGR,GSA,A,3,,,,,,,,,,,,,1.7,0.8,1.5,5,8*4B,1730044042012
NMEA,$PSSGR,GSA,A,3,,,,,,,,,,,,,1.7,0.8,1.5,5,9*4A,1730044042012
NMEA,$PSSGR,GSA,A,3,,,,,,,,,,,,,1.7,0.8,1.5,4,1*43,1730044042012
NMEA,$PSSGR,GSA,A,3,,,,,,,,,,,,,1.7,0.8,1.5,4,5*47,1730044042012
NMEA,$PSSGR,GSA,A,3,,,,,,,,,,,,,1.7,0.8,1.5,4,3*41,1730044042013
NMEA,$PSSGR,GSA,A,3,108,113,125,126,,,,,,,,,1.7,0.8,1.5,3,7*4B,1730044042013
NMEA,$PSSGR,GSA,A,3,,,,,,,,,,,,,1.7,0.8,1.5,3,1*44,1730044042013
NMEA,$GPGSV,3,1,09,10,85,063,35,32,66,297,32,23,43,125,22,28,34,205,27*7E,1730044042013
NMEA,$GPGSV,3,2,09,21,25,308,25,24,23,048,22,12,20,087,23,25,19,128,28*73,1730044042013
NMEA,$GPGSV,3,3,09,02,13,322,21*40,1730044042013
NMEA,$GLGSV,3,1,10,66,58,342,27,65,41,068,28,76,40,131,32,75,36,051,28*67,1730044042013
NMEA,$GLGSV,3,2,10,81,32,250,31,82,30,308,27,67,19,292,,77,10,169,*60,1730044042016
NMEA,$GLGSV,3,3,10,83,07,343,,88,05,203,*68,1730044042016
NMEA,$GAGSV,2,1,08,108,75,354,29,113,52,238,29,107,35,267,21,126,31,310,30*61,1730044042016
NMEA,$GAGSV,2,2,08,125,19,065,26,103,33,065,,115,21,182,,102,18,118,*67,1730044042016
NMEA,$GPGSA,A,3,10,21,24,25,28,32,,,,,,,1.7,0.8,1.5*30,1730044042016
NMEA,$GPGSA,A,3,,,,,,,,,,,,,1.7,0.8,1.5,8*2C,1730044042016
NMEA,$GPGSA,A,3,,,,,,,,,,,,,1.7,0.8,1.5,9*2D,1730044042016
NMEA,$QZGSA,A,3,,,,,,,,,,,,,1.7,0.8,1.5*24,1730044042016
NMEA,$QZGSA,A,3,,,,,,,,,,,,,1.7,0.8,1.5,8*30,1730044042016
NMEA,$QZGSA,A,3,,,,,,,,,,,,,1.7,0.8,1.5,9*31,1730044042016
NMEA,$BDGSA,A,3,,,,,,,,,,,,,1.7,0.8,1.5*29,1730044042016
NMEA,$BDGSA,A,3,,,,,,,,,,,,,1.7,0.8,1.5,5*30,1730044042016
NMEA,$BDGSA,A,3,,,,,,,,,,,,,1.7,0.8,1.5,3*36,1730044042016
NMEA,$GAGSA,A,3,108,113,125,126,,,,,,,,,1.7,0.8,1.5*20,1730044042017
NMEA,$GAGSA,A,3,,,,,,,,,,,,,1.7,0.8,1.5,1*34,1730044042018
NMEA,$GNGSA,A,3,10,21,24,25,28,32,,,,,,,1.7,0.8,1.5*2E,1730044042018
NMEA,$GNGSA,A,3,65,66,75,76,81,82,,,,,,,1.7,0.8,1.5*25,1730044042018
NMEA,$PGLOR,1,FIX,1.0,1.0*20,1730044042019
NMEA,$GPRMC,154719.98,A,4228.761245,N,08323.568981,W,000.0,,271024,,,A*60,1730044042019
NMEA,$PGLOR,SPL,39241127114722.0,POS,20241027154719.977,42.479354,-83.392816,10,10,0,217,39,1.100000*76,1730044042020
NMEA,$GPGGA,154720.98,4228.760701,N,08323.568682,W,1,15,1.3,259.7,M,-34.6,M,,*5F,1730044042987
NMEA,$PGLOR,12,STA,154720.98,-0.001,0.000,617,98,12,1,P,F,L,0,C,2,S,00100002,0,5,R,000833F4,TPEF,30,12105,LC,,,DR,3,0,0*00,1730044042987
NMEA,$PGLOR,1,UNC,154720.98,0.066,12.7,24.4,0.51,180.00,13.8,13.1,83.8*18,1730044042987
NMEA,$PGLOR,2,SAT,5,1,G10,30,1F,E08,21,1F,G32,27,1F,R02,23,17,E13,21,1F,G23,13,23*28,1730044042987
NMEA,$PGLOR,2,SAT,5,2,R01,23,37,R12,28,1F,R11,18,37,E07,16,20,G28,19,27,R17,27,3F*33,1730044042987
NMEA,$PGLOR,2,SAT,5,3,E26,20,1F,R18,23,3B,G21,21,21,G24,17,2F,G12,12,23,G25,23,2F*2F,1730044042987
NMEA,$PGLOR,2,SAT,5,4,E25,20,2F,G02,14,23,E30,,20,E03,,20,E15,,20,R03,,30*57,1730044042987
NMEA,$PGLOR,2,SAT,5,5,E02,,20,R13,,30,R19,,30,R24,,30,G31,,20,E24,,20*2C,1730044042987
NMEA,$PGLOR,2,SVC,GPS,0,3,1,10,010,FFUS,FFUS,023,FFUS,FFUS,028,CLIN,CLIN,032,FFUS,FFUS*62,1730044042988
NMEA,$PGLOR,2,SVC,GPS,0,3,2,10,012,FFUS,FFUS,021,FFUS,FFUS,024,UNKN,UNKN,025,FFUS,FFUS*6B,1730044042988
NMEA,$PGLOR,2,SVC,GPS,0,3,3,10,002,UNKN,UNKN,031,CLIN,CLIN*6B,1730044042988
NMEA,$PGLOR,2,SVC,GLO,0,3,1,10,055,FFUS,FFUS,058,FFUS,FFUS,059,FFUS,FFUS,060,FFUS,FFUS*6E,1730044042988
NMEA,$PGLOR,2,SVC,GLO,0,3,2,10,056,FFUS,FFUS,057,FFUS,FFUS,063,CLIN,CLIN,064,CLIN,CLIN*6C,1730044042988
NMEA,$PGLOR,2,SVC,GLO,0,3,3,10,061,CLIN,CLIN,062,CLIN,CLIN*68,1730044042988
NMEA,$PGLOR,2,SVC,GAL,0,3,1,10,145,FFUS,FFUS,146,FFUS,FFUS,151,CLIN,CLIN,164,FFUS,FFUS*62,1730044042988
NMEA,$PGLOR,2,SVC,GAL,0,3,2,10,141,FFUS,FFUS,153,CLIN,CLIN,163,CLIN,CLIN,168,CLIN,CLIN*6C,1730044042988
NMEA,$PGLOR,2,SVC,GAL,0,3,3,10,140,CLIN,CLIN,162,CLIN,CLIN*65,1730044042988
NMEA,$PGLOR,2,SIO,TxERR,0,RxERR,0,TxCNT,450,RxCNT,7972,MLFRMPKT,0,DTMS,1001,DTIN,57,71,DTOUT,12,931,HATMD,63*16,1730044042988
NMEA,$PGLOR,2,HLA,154720.98,L,,Al,,A,,H,,,M,0,Ac,0,Gr,0,S,,,Sx,,,T,0,Tr,,Mn,,Ap,,Ta,0,,,Aa,1,Ga,1,*1E,1730044042988
NMEA,$PGLOR,3,CTX,154720.98,E,2,0,,,V,0,0,S,,,*7E,1730044042989
NMEA,$PGLOR,1,LSQ,154720.98,,,,,,,,,,,,,,,,00,,*3F,1730044042989
NMEA,$PGLOR,6,PWR,mA,27.8,RFTm,1001,OscTm,1001,MeasTm,1001,UTC,154720.98,GNSSmA,26.5,CPUTm,364,COPTm,77,COPMargTm,162,S*00,1730044042989
NMEA,$PGLOR,2,PFM,HAL,-,0,0,0,0,RF,-,-180,20.6,0,RTC,,P,STO,P,LTO,P,SW,P,,,OSC,U,U,*41,1730044042989
NMEA,$PGLOR,3,AGC,G,31.6,R,47.9,B,18.5,E5A,,AL1,24.1,AL5,,LTE,,PM1,,PM5,*0E,1730044042989
NMEA,$PSSGR,GSA,A,3,10,24,25,28,32,,,,,,,,1.9,1.0,1.7,1,1*48,1730044042989
NMEA,$PSSGR,GSA,A,3,,,,,,,,,,,,,1.9,1.0,1.7,1,8*4A,1730044042989
NMEA,$PSSGR,GSA,A,3,,,,,,,,,,,,,1.9,1.0,1.7,1,9*4B,1730044042989
NMEA,$PSSGR,GSA,A,3,65,66,75,76,81,82,,,,,,,1.9,1.0,1.7,2,1*43,1730044042989
NMEA,$PSSGR,GSA,A,3,,,,,,,,,,,,,1.9,1.0,1.7,5,1*47,1730044042989
NMEA,$PSSGR,GSA,A,3,,,,,,,,,,,,,1.9,1.0,1.7,5,8*4E,1730044042991
NMEA,$PSSGR,GSA,A,3,,,,,,,,,,,,,1.9,1.0,1.7,5,9*4F,1730044042991
NMEA,$PSSGR,GSA,A,3,,,,,,,,,,,,,1.9,1.0,1.7,4,1*46,1730044042992
NMEA,$PSSGR,GSA,A,3,,,,,,,,,,,,,1.9,1.0,1.7,4,5*42,1730044042992
NMEA,$PSSGR,GSA,A,3,,,,,,,,,,,,,1.9,1.0,1.7,4,3*44,1730044042992
NMEA,$PSSGR,GSA,A,3,108,113,125,126,,,,,,,,,1.9,1.0,1.7,3,7*4E,1730044042992
NMEA,$PSSGR,GSA,A,3,,,,,,,,,,,,,1.9,1.0,1.7,3,1*41,1730044042992
NMEA,$GPGSV,3,1,10,10,85,063,35,32,66,297,32,23,43,125,22,28,34,205,27*76,1730044042992
NMEA,$GPGSV,3,2,10,21,25,308,25,24,23,048,22,12,20,087,22,25,19,128,28*7A,1730044042992
NMEA,$GPGSV,3,3,10,02,13,322,21,31,02,212,*79,1730044042993
NMEA,$GLGSV,3,1,10,66,58,342,27,65,41,068,28,76,40,131,32,75,36,051,27*68,1730044042993
NMEA,$GLGSV,3,2,10,81,32,250,31,82,30,308,27,67,19,292,,77,10,169,*60,1730044042993
NMEA,$GLGSV,3,3,10,83,07,343,,88,05,203,*68,1730044042993
NMEA,$GAGSV,3,1,10,108,75,354,28,113,52,238,29,107,35,267,21,126,31,310,29*60,1730044042993
NMEA,$GAGSV,3,2,10,125,19,065,26,130,-1,163,,103,33,065,,115,21,182,*77,1730044042993
NMEA,$GAGSV,3,3,10,102,19,118,,124,00,020,*6F,1730044042993
NMEA,$GPGSA,A,3,10,24,25,28,32,,,,,,,,1.9,1.0,1.7*36,1730044042993
NMEA,$GPGSA,A,3,,,,,,,,,,,,,1.9,1.0,1.7,8*29,1730044042994
NMEA,$GPGSA,A,3,,,,,,,,,,,,,1.9,1.0,1.7,9*28,1730044042994
NMEA,$QZGSA,A,3,,,,,,,,,,,,,1.9,1.0,1.7*21,1730044042994
NMEA,$QZGSA,A,3,,,,,,,,,,,,,1.9,1.0,1.7,8*35,1730044042994
NMEA,$QZGSA,A,3,,,,,,,,,,,,,1.9,1.0,1.7,9*34,1730044042994
NMEA,$BDGSA,A,3,,,,,,,,,,,,,1.9,1.0,1.7*2C,1730044042994
NMEA,$BDGSA,A,3,,,,,,,,,,,,,1.9,1.0,1.7,5*35,1730044042994
NMEA,$BDGSA,A,3,,,,,,,,,,,,,1.9,1.0,1.7,3*33,1730044042994
NMEA,$GAGSA,A,3,108,113,125,126,,,,,,,,,1.9,1.0,1.7*25,1730044042994
NMEA,$GAGSA,A,3,,,,,,,,,,,,,1.9,1.0,1.7,1*31,1730044042995
NMEA,$GNGSA,A,3,10,24,25,28,32,,,,,,,,1.9,1.0,1.7*28,1730044042995
NMEA,$GNGSA,A,3,65,66,75,76,81,82,,,,,,,1.9,1.0,1.7*20,1730044042995
NMEA,$PGLOR,1,FIX,1.0,1.0*20,1730044042995
NMEA,$GPRMC,154720.98,A,4228.760701,N,08323.568682,W,000.0,,271024,,,A*62,1730044042996
NMEA,$PGLOR,SPL,39241127114722.9,POS,20241027154720.977,42.479345,-83.392811,13,13,0,225,24,1.100000*7F,1730044042996
NMEA,$GPGGA,154721.98,4228.760769,N,08323.568583,W,1,18,1.2,261.3,M,-34.6,M,,*51,1730044044003
NMEA,$PGLOR,12,STA,154721.98,-0.001,0.000,617,2,11,1,P,F,L,0,C,2,S,00100002,0,5,R,000833F4,TPEF,29,13105,LC,,,DR,3,0,0.*00,1730044044004
NMEA,$PGLOR,1,UNC,154721.98,0.054,11.8,19.9,0.46,180.00,12.9,11.9,82.7*15,1730044044004
NMEA,$PGLOR,2,SAT,5,1,G10,29,1F,E08,21,1F,G32,27,1F,R02,23,1F,E13,20,1F,G23,13,2F*25,1730044044004
NMEA,$PGLOR,2,SAT,5,2,R01,23,3B,R12,27,1F,R11,19,37,E07,15,20,G28,20,27,E03,30,20*22,1730044044004
NMEA,$PGLOR,2,SAT,5,3,R17,26,3F,E26,20,1F,R18,23,3B,G21,22,27,G24,17,2F,E15,23,20*3E,1730044044004
NMEA,$PGLOR,2,SAT,5,4,G12,12,21,G25,23,2F,R03,19,30,E02,29,20,E25,20,2F,G02,14,2B*52,1730044044004
NMEA,$PGLOR,2,SAT,5,5,R13,20,30,R19,14,30,R24,18,30,G31,,20,E24,,20*4B,1730044044004
NMEA,$PGLOR,2,SVC,GPS,0,3,1,10,010,SKUS,SKUS,023,SKUS,SKUS,028,POGH,POGH,032,SKUS,SKPR*66,1730044044004
NMEA,$PGLOR,2,SVC,GPS,0,3,2,10,012,RLPR,DOPE,021,SKUS,SKUS,024,POGH,POGH,025,SKUS,SKUS*69,1730044044004
NMEA,$PGLOR,2,SVC,GPS,0,3,3,10,002,POGH,POGH,031,CLIN,CLIN*6B,1730044044005
NMEA,$PGLOR,2,SVC,GLO,0,3,1,10,055,SKUS,SKPR,058,SKUS,SKPR,059,SKUS,SKUS,060,SKUS,SKPR*6A,1730044044005
NMEA,$PGLOR,2,SVC,GLO,0,3,2,10,056,SKUS,SKUS,057,SKPR,SKUS,063,UNKN,UNKN,064,UNKN,UNKN*68,1730044044005
NMEA,$PGLOR,2,SVC,GLO,0,3,3,10,061,UNKN,UNKN,062,UNKN,UNKN*68,1730044044005
NMEA,$PGLOR,2,SVC,GAL,0,3,1,09,141,SKUS,SKUS,145,SKUS,SKUS,146,CLIN,CLIN,151,UNKN,UNKN*6D,1730044044005
NMEA,$PGLOR,2,SVC,GAL,0,3,2,09,140,SKUS,SKUS,153,UNKN,UNKN,163,UNKN,UNKN,164,SKUS,SKUS*69,1730044044005
NMEA,$PGLOR,2,SVC,GAL,0,3,3,09,162,CLIN,CLIN*74,1730044044005
NMEA,$PGLOR,2,SIO,TxERR,0,RxERR,0,TxCNT,842,RxCNT,10240,MLFRMPKT,0,DTMS,1023,DTIN,28,41,DTOUT,15,982,HATMD,86*2A,1730044044005
NMEA,$PGLOR,2,HLA,154721.98,L,,Al,,A,,H,,,M,0,Ac,0,Gr,0,S,,,Sx,,,T,0,Tr,,Mn,,Ap,,Ta,0,,,Aa,1,Ga,1,*1F,1730044044006
NMEA,$PGLOR,3,CTX,154721.98,E,2,0,,,V,0,0,S,,,*7F,1730044044006
NMEA,$PGLOR,1,LSQ,154721.98,,,,,,,,,,,,,,,,00,,*3E,1730044044006
NMEA,$PGLOR,6,PWR,mA,18.1,RFTm,1011,OscTm,1011,MeasTm,1011,UTC,154721.98,GNSSmA,16.7,CPUTm,231,COPTm,92,COPMargTm,160,S*00,1730044044006
NMEA,$PGLOR,3,AGC,G,33.2,R,47.9,B,18.5,E5A,,AL1,24.1,AL5,,LTE,,PM1,,PM5,*08,1730044044006
NMEA,$PSSGR,GSA,A,3,02,10,21,23,24,25,28,32,,,,,1.6,0.8,1.4,1,1*4D,1730044044006
NMEA,$PSSGR,GSA,A,3,,,,,,,,,,,,,1.6,0.8,1.4,1,8*4F,1730044044006
NMEA,$PSSGR,GSA,A,3,,,,,,,,,,,,,1.6,0.8,1.4,1,9*4E,1730044044006
NMEA,$PSSGR,GSA,A,3,65,66,75,76,81,82,,,,,,,1.6,0.8,1.4,2,1*46,1730044044007
NMEA,$PSSGR,GSA,A,3,,,,,,,,,,,,,1.6,0.8,1.4,5,1*42,1730044044007
NMEA,$PSSGR,GSA,A,3,,,,,,,,,,,,,1.6,0.8,1.4,5,8*4B,1730044044007
NMEA,$PSSGR,GSA,A,3,,,,,,,,,,,,,1.6,0.8,1.4,5,9*4A,1730044044007
NMEA,$PSSGR,GSA,A,3,,,,,,,,,,,,,1.6,0.8,1.4,4,1*43,1730044044007
NMEA,$PSSGR,GSA,A,3,,,,,,,,,,,,,1.6,0.8,1.4,4,5*47,1730044044007
NMEA,$PSSGR,GSA,A,3,,,,,,,,,,,,,1.6,0.8,1.4,4,3*41,1730044044007
NMEA,$PSSGR,GSA,A,3,108,113,125,126,,,,,,,,,1.6,0.8,1.4,3,7*4B,1730044044008
NMEA,$PSSGR,GSA,A,3,,,,,,,,,,,,,1.6,0.8,1.4,3,1*44,1730044044008
NMEA,$GPGSV,3,1,10,10,85,063,35,32,66,297,32,23,43,125,21,28,34,205,26*74,1730044044008
NMEA,$GPGSV,3,2,10,21,25,308,26,24,23,048,22,12,20,087,22,25,19,128,28*79,1730044044008
NMEA,$GPGSV,3,3,10,02,13,322,21,31,02,212,*79,1730044044008
NMEA,$GLGSV,3,1,10,66,58,342,27,65,41,068,28,76,40,131,32,75,36,051,27*68,1730044044008
NMEA,$GLGSV,3,2,10,81,32,250,31,82,30,308,27,67,19,292,23,77,10,169,24*67,1730044044008
NMEA,$GLGSV,3,3,10,83,07,343,18,88,05,203,22*61,1730044044008
NMEA,$GAGSV,3,1,09,108,75,354,28,113,52,238,28,107,35,267,21,103,33,065,34*61,1730044044009
NMEA,$GAGSV,3,2,09,126,31,310,29,115,21,182,27,102,19,118,33,125,19,065,26*6C,1730044044009
NMEA,$GAGSV,3,3,09,124,00,020,*64,1730044044009
NMEA,$GPGSA,A,3,02,10,21,23,24,25,28,32,,,,,1.6,0.8,1.4*33,1730044044009
NMEA,$GPGSA,A,3,,,,,,,,,,,,,1.6,0.8,1.4,8*2C,1730044044009
NMEA,$GPGSA,A,3,,,,,,,,,,,,,1.6,0.8,1.4,9*2D,1730044044009
NMEA,$QZGSA,A,3,,,,,,,,,,,,,1.6,0.8,1.4*24,1730044044009
NMEA,$QZGSA,A,3,,,,,,,,,,,,,1.6,0.8,1.4,8*30,1730044044009
NMEA,$QZGSA,A,3,,,,,,,,,,,,,1.6,0.8,1.4,9*31,1730044044010
NMEA,$BDGSA,A,3,,,,,,,,,,,,,1.6,0.8,1.4*29,1730044044010
NMEA,$BDGSA,A,3,,,,,,,,,,,,,1.6,0.8,1.4,5*30,1730044044010
NMEA,$BDGSA,A,3,,,,,,,,,,,,,1.6,0.8,1.4,3*36,1730044044010
NMEA,$GAGSA,A,3,108,113,125,126,,,,,,,,,1.6,0.8,1.4*20,1730044044010
NMEA,$GAGSA,A,3,,,,,,,,,,,,,1.6,0.8,1.4,1*34,1730044044010
NMEA,$GNGSA,A,3,02,10,21,23,24,25,28,32,,,,,1.6,0.8,1.4*2D,1730044044010
NMEA,$GNGSA,A,3,65,66,75,76,81,82,,,,,,,1.6,0.8,1.4*25,1730044044011
NMEA,$PGLOR,1,FIX,1.0,1.0*20,1730044044011
NMEA,$GPRMC,154721.98,A,4228.760769,N,08323.568583,W,000.0,,271024,,,A*6F,1730044044011
NMEA,$PGLOR,SPL,39241127114724.0,POS,20241027154721.977,42.479346,-83.392810,12,12,0,227,20,1.100000*75,1730044044011
NMEA,$GPGGA,154723.00,4228.760743,N,08323.568115,W,1,17,1.1,260.7,M,-34.6,M,,*58,1730044045031
NMEA,$PGLOR,12,STA,154723.00,-0.001,0.000,617,1,10,1,P,F,L,0,C,2,S,00100002,0,5,R,000833F4,TPEF,27,14128,LC,,,DR,3,0,0.*00,1730044045031
NMEA,$PGLOR,1,UNC,154723.00,0.046,10.9,17.1,0.47,180.00,12.1,11.0,80.1*17,1730044045031
NMEA,$PGLOR,2,SAT,5,1,G10,29,1F,E08,21,1F,G32,27,1F,R02,23,1F,E13,20,1F,G23,13,21*52,1730044045031
NMEA,$PGLOR,2,SAT,5,2,R01,24,37,R12,27,1F,R11,20,3F,E07,15,20,G28,19,27,E03,25,2F*53,1730044045031
NMEA,$PGLOR,2,SAT,5,3,R17,26,3F,E26,19,1F,R18,23,3F,G21,22,27,G24,19,27,E15,19,20*46,1730044045031
NMEA,$PGLOR,2,SAT,5,4,G12,12,20,G25,23,2F,R03,18,30,E02,24,20,E25,20,2F,G02,13,23*29,1730044045031
NMEA,$PGLOR,2,SAT,5,5,R13,19,30,R19,13,30,R24,18,30*40,1730044045031
NMEA,$PGLOR,2,SVC,GPS,0,3,1,09,010,SKUS,SKUS,023,SKUS,SKUS,028,SKUS,SKUS,032,SKUS,SKPR*6E,1730044045031
NMEA,$PGLOR,2,SVC,GPS,0,3,2,09,012,SKUS,SKPR,021,SKUS,SKUS,024,POGH,POGH,025,SKUS,SKUS*67,1730044045031
NMEA,$PGLOR,2,SVC,GPS,0,3,3,09,002,SKPR,SKUS*79,1730044045031
NMEA,$PGLOR,2,SVC,GLO,0,3,1,10,055,SKUS,SKUS,058,SKPR,SKUS,059,SKUS,SKUS,060,SKUS,SKPR*6E,1730044045031
NMEA,$PGLOR,2,SVC,GLO,0,3,2,10,056,SKUS,SKUS,057,SKPR,SKUS,063,CLIN,CLIN,064,CLIN,CLIN*68,1730044045031
NMEA,$PGLOR,2,SVC,GLO,0,3,3,10,061,CLIN,CLIN,062,CLIN,CLIN*68,1730044045031
NMEA,$PGLOR,2,SVC,GAL,0,2,1,08,141,SKUS,SKUS,145,SKUS,SKUS,146,CLIN,CLIN,151,CLIN,CLIN*6D,1730044045031
NMEA,$PGLOR,2,SVC,GAL,0,2,2,08,140,SKUS,SKUS,153,CLIN,CLIN,163,CLIN,CLIN,164,SKUS,SKUS*69,1730044045031
NMEA,$PGLOR,2,SIO,TxERR,0,RxERR,0,TxCNT,656,RxCNT,10788,MLFRMPKT,0,DTMS,1029,DTIN,20,32,DTOUT,30,998,HATMD,92*2F,1730044045031
NMEA,$PGLOR,2,HLA,154723.00,L,,Al,,A,,H,,,M,0,Ac,0,Gr,0,S,,,Sx,,,T,0,Tr,,Mn,,Ap,,Ta,0,,,Aa,1,Ga,1,*1C,1730044045031
NMEA,$PGLOR,3,CTX,154723.00,E,2,0,,,V,0,0,S,,,*7C,1730044045031
NMEA,$PGLOR,1,LSQ,154723.00,,,,,,,,,,,,,,,,00,,*3D,1730044045031
NMEA,$PGLOR,6,PWR,mA,17.0,RFTm,1021,OscTm,1021,MeasTm,1021,UTC,154723.00,GNSSmA,15.7,CPUTm,221,COPTm,112,COPMargTm,157,*00,1730044045031
NMEA,$PGLOR,3,AGC,G,30.7,R,47.9,B,18.5,E5A,,AL1,21.6,AL5,,LTE,,PM1,,PM5,*0C,1730044045031
NMEA,$PSSGR,GSA,A,3,10,21,24,25,28,32,,,,,,,1.7,0.8,1.5,1,1*4E,1730044045031
NMEA,$PSSGR,GSA,A,3,,,,,,,,,,,,,1.7,0.8,1.5,1,8*4F,1730044045031
NMEA,$PSSGR,GSA,A,3,,,,,,,,,,,,,1.7,0.8,1.5,1,9*4E,1730044045031
NMEA,$PSSGR,GSA,A,3,65,66,75,76,81,82,,,,,,,1.7,0.8,1.5,2,1*46,1730044045031
NMEA,$PSSGR,GSA,A,3,,,,,,,,,,,,,1.7,0.8,1.5,5,1*42,1730044045031
NMEA,$PSSGR,GSA,A,3,,,,,,,,,,,,,1.7,0.8,1.5,5,8*4B,1730044045031
NMEA,$PSSGR,GSA,A,3,,,,,,,,,,,,,1.7,0.8,1.5,5,9*4A,1730044045031
NMEA,$PSSGR,GSA,A,3,,,,,,,,,,,,,1.7,0.8,1.5,4,1*43,1730044045031
NMEA,$PSSGR,GSA,A,3,,,,,,,,,,,,,1.7,0.8,1.5,4,5*47,1730044045031
NMEA,$PSSGR,GSA,A,3,,,,,,,,,,,,,1.7,0.8,1.5,4,3*41,1730044045031
NMEA,$PSSGR,GSA,A,3,103,108,113,125,126,,,,,,,,1.7,0.8,1.5,3,7*79,1730044045031
NMEA,$PSSGR,GSA,A,3,,,,,,,,,,,,,1.7,0.8,1.5,3,1*44,1730044045031
NMEA,$GPGSV,3,1,09,10,85,063,35,32,66,297,32,23,43,125,21,28,34,205,26*7C,1730044045031
NMEA,$GPGSV,3,2,09,21,25,308,26,24,23,048,23,12,20,087,21,25,19,128,28*73,1730044045032
NMEA,$GPGSV,3,3,09,02,13,322,20*41,1730044045032
NMEA,$GLGSV,3,1,10,66,58,342,27,65,41,068,28,76,40,131,32,75,36,051,26*69,1730044045032
NMEA,$GLGSV,3,2,10,81,32,250,31,82,30,308,27,67,19,292,23,77,10,169,23*60,1730044045032
NMEA,$GLGSV,3,3,10,83,07,343,17,88,05,203,22*6E,1730044045032
NMEA,$GAGSV,2,1,08,108,75,354,28,113,52,238,28,107,35,267,21,103,33,065,34*61,1730044045032
NMEA,$GAGSV,2,2,08,126,31,310,28,115,21,182,26,102,19,118,33,125,19,065,26*6C,1730044045032
NMEA,$GPGSA,A,3,10,21,24,25,28,32,,,,,,,1.7,0.8,1.5*30,1730044045032
NMEA,$GPGSA,A,3,,,,,,,,,,,,,1.7,0.8,1.5,8*2C,1730044045032
NMEA,$GPGSA,A,3,,,,,,,,,,,,,1.7,0.8,1.5,9*2D,1730044045032
NMEA,$QZGSA,A,3,,,,,,,,,,,,,1.7,0.8,1.5*24,1730044045032
NMEA,$QZGSA,A,3,,,,,,,,,,,,,1.7,0.8,1.5,8*30,1730044045032
NMEA,$QZGSA,A,3,,,,,,,,,,,,,1.7,0.8,1.5,9*31,1730044045032
NMEA,$BDGSA,A,3,,,,,,,,,,,,,1.7,0.8,1.5*29,1730044045032
NMEA,$BDGSA,A,3,,,,,,,,,,,,,1.7,0.8,1.5,5*30,1730044045033
NMEA,$BDGSA,A,3,,,,,,,,,,,,,1.7,0.8,1.5,3*36,1730044045033
NMEA,$GAGSA,A,3,103,108,113,125,126,,,,,,,,1.7,0.8,1.5*12,1730044045033
NMEA,$GAGSA,A,3,,,,,,,,,,,,,1.7,0.8,1.5,1*34,1730044045033
NMEA,$GNGSA,A,3,10,21,24,25,28,32,,,,,,,1.7,0.8,1.5*2E,1730044045033
NMEA,$GNGSA,A,3,65,66,75,76,81,82,,,,,,,1.7,0.8,1.5*25,1730044045033
NMEA,$PGLOR,1,FIX,1.0,1.0*20,1730044045033
NMEA,$GPRMC,154723.00,A,4228.760743,N,08323.568115,W,000.0,,271024,,,A*6F,1730044045033
NMEA,$PGLOR,SPL,39241127114725.0,POS,20241027154723.000,42.479346,-83.392802,11,11,0,226,17,1.123000*78,1730044045034
NMEA,$GPGGA,154724.00,4228.760482,N,08323.568005,W,1,19,1.0,259.9,M,-34.6,M,,*5A,1730044046044
NMEA,$PGLOR,12,STA,154724.00,-0.001,0.000,618,1,10,1,P,F,L,0,C,2,S,00100002,0,5,R,000833F4,TPEF,27,15128,LC,,,DR,3,0,0.*00,1730044046044
NMEA,$PGLOR,1,UNC,154724.00,0.040,10.1,15.0,0.48,180.00,11.2,10.2,82.5*17,1730044046044
NMEA,$PGLOR,2,SAT,5,1,G10,28,1F,E08,22,1F,G32,27,1F,R02,22,1B,E13,21,1F,G23,12,20*54,1730044046050
NMEA,$PGLOR,2,SAT,5,2,R01,24,3F,R12,28,1F,R11,21,3F,E07,14,20,G28,21,27,E03,21,20*54,1730044046050
NMEA,$PGLOR,2,SAT,5,3,R17,25,3F,E26,19,1F,R18,23,3F,G21,22,27,G24,19,27,E15,17,27*4C,1730044046052
NMEA,$PGLOR,2,SAT,5,4,G12,13,21,G25,21,27,R03,18,31,E02,20,27,E25,20,2F,G02,13,2F*2D,1730044046052
NMEA,$PGLOR,2,SAT,5,5,R13,18,30,R19,12,30,R24,17,30*4F,1730044046052
NMEA,$PGLOR,2,SVC,GPS,0,3,1,09,010,SKUS,SKUS,023,SKUS,SKUS,028,RLPR,DOPE,032,SKUS,SKPR*6C,1730044046052
NMEA,$PGLOR,2,SVC,GPS,0,3,2,09,012,SKUS,SKPR,021,SKUS,SKPR,024,CLIN,CLIN,025,SKUS,SKUS*63,1730044046053
NMEA,$PGLOR,2,SVC,GPS,0,3,3,09,002,SKPR,SKPR*7D,1730044046053
NMEA,$PGLOR,2,SVC,GLO,0,3,1,10,055,SKUS,SKUS,058,SKUS,SKPR,059,SKUS,SKUS,060,SKUS,SKUS*6A,1730044046053
NMEA,$PGLOR,2,SVC,GLO,0,3,2,10,056,SKUS,SKUS,057,SKUS,SKUS,063,CLIN,CLIN,064,CLIN,CLIN*6C,1730044046053
NMEA,$PGLOR,2,SVC,GLO,0,3,3,10,061,CLIN,CLIN,062,CLIN,CLIN*68,1730044046053
NMEA,$PGLOR,2,SVC,GAL,0,2,1,08,141,SKUS,SKUS,145,SKUS,SKUS,146,CLIN,CLIN,151,SKUS,SKUS*6D,1730044046053
NMEA,$PGLOR,2,SVC,GAL,0,2,2,08,140,SKUS,SKUS,153,CLIN,CLIN,163,CLIN,CLIN,164,SKUS,SKUS*69,1730044046053
NMEA,$PGLOR,2,SIO,TxERR,0,RxERR,0,TxCNT,561,RxCNT,10880,MLFRMPKT,0,DTMS,1009,DTIN,10,30,DTOUT,14,972,HATMD,101*15,1730044046053
NMEA,$PGLOR,2,HLA,154724.00,L,,Al,,A,,H,,,M,1,Ac,0,Gr,0,S,,,Sx,,,T,1,Tr,,Mn,,Ap,,Ta,0,,,Aa,1,Ga,1,*1B,1730044046053
NMEA,$PGLOR,3,CTX,154724.00,E,2,0,,,V,0,0,S,,,*7B,1730044046054
NMEA,$PGLOR,1,LSQ,154724.00,,,,,,,,,,,,,,,,00,,*3A,1730044046054
NMEA,$PGLOR,6,PWR,mA,17.0,RFTm,1003,OscTm,1003,MeasTm,1003,UTC,154724.00,GNSSmA,15.7,CPUTm,218,COPTm,112,COPMargTm,157,*00,1730044046054
NMEA,$PGLOR,3,AGC,G,32.8,R,48.7,B,18.5,E5A,,AL1,24.1,AL5,,LTE,,PM1,,PM5,*02,1730044046054
NMEA,$PSSGR,GSA,A,3,02,10,21,24,25,28,32,,,,,,1.6,0.8,1.4,1,1*4C,1730044046054
NMEA,$PSSGR,GSA,A,3,,,,,,,,,,,,,1.6,0.8,1.4,1,8*4F,1730044046054
NMEA,$PSSGR,GSA,A,3,,,,,,,,,,,,,1.6,0.8,1.4,1,9*4E,1730044046054
NMEA,$PSSGR,GSA,A,3,65,66,75,76,81,82,,,,,,,1.6,0.8,1.4,2,1*46,1730044046055
NMEA,$PSSGR,GSA,A,3,,,,,,,,,,,,,1.6,0.8,1.4,5,1*42,1730044046055
NMEA,$PSSGR,GSA,A,3,,,,,,,,,,,,,1.6,0.8,1.4,5,8*4B,1730044046055
NMEA,$PSSGR,GSA,A,3,,,,,,,,,,,,,1.6,0.8,1.4,5,9*4A,1730044046055
NMEA,$PSSGR,GSA,A,3,,,,,,,,,,,,,1.6,0.8,1.4,4,1*43,1730044046055
NMEA,$PSSGR,GSA,A,3,,,,,,,,,,,,,1.6,0.8,1.4,4,5*47,1730044046055
NMEA,$PSSGR,GSA,A,3,,,,,,,,,,,,,1.6,0.8,1.4,4,3*41,1730044046055
NMEA,$PSSGR,GSA,A,3,102,108,113,115,125,126,,,,,,,1.6,0.8,1.4,3,7*4D,1730044046055
NMEA,$PSSGR,GSA,A,3,,,,,,,,,,,,,1.6,0.8,1.4,3,1*44,1730044046055
NMEA,$GPGSV,3,1,09,10,85,063,34,32,66,297,32,23,43,125,20,28,34,205,26*7C,1730044046055
NMEA,$GPGSV,3,2,09,21,25,308,26,24,23,048,23,12,20,087,21,25,19,128,27*7C,1730044046055
NMEA,$GPGSV,3,3,09,02,13,322,20*41,1730044046056
NMEA,$GLGSV,3,1,10,66,58,342,27,65,41,068,28,76,40,131,32,75,36,051,26*69,1730044046056
NMEA,$GLGSV,3,2,10,81,32,250,31,82,30,308,27,67,19,292,23,77,10,169,23*60,1730044046056
NMEA,$GLGSV,3,3,10,83,07,343,17,88,05,203,22*6E,1730044046056
NMEA,$GAGSV,2,1,08,108,75,354,28,113,52,238,27,107,35,267,20,103,33,065,33*68,1730044046056
NMEA,$GAGSV,2,2,08,126,31,310,28,115,21,182,26,102,19,118,32,125,19,065,25*6E,1730044046057
NMEA,$GPGSA,A,3,02,10,21,24,25,28,32,,,,,,1.6,0.8,1.4*32,1730044046057
NMEA,$GPGSA,A,3,,,,,,,,,,,,,1.6,0.8,1.4,8*2C,1730044046057
NMEA,$GPGSA,A,3,,,,,,,,,,,,,1.6,0.8,1.4,9*2D,1730044046057
NMEA,$QZGSA,A,3,,,,,,,,,,,,,1.6,0.8,1.4*24,1730044046057
NMEA,$QZGSA,A,3,,,,,,,,,,,,,1.6,0.8,1.4,8*30,1730044046057
NMEA,$QZGSA,A,3,,,,,,,,,,,,,1.6,0.8,1.4,9*31,1730044046057
NMEA,$BDGSA,A,3,,,,,,,,,,,,,1.6,0.8,1.4*29,1730044046057
NMEA,$BDGSA,A,3,,,,,,,,,,,,,1.6,0.8,1.4,5*30,1730044046057
NMEA,$BDGSA,A,3,,,,,,,,,,,,,1.6,0.8,1.4,3*36,1730044046057
NMEA,$GAGSA,A,3,102,108,113,115,125,126,,,,,,,1.6,0.8,1.4*26,1730044046057
NMEA,$GAGSA,A,3,,,,,,,,,,,,,1.6,0.8,1.4,1*34,1730044046057
NMEA,$GNGSA,A,3,02,10,21,24,25,28,32,,,,,,1.6,0.8,1.4*2C,1730044046057
NMEA,$GNGSA,A,3,65,66,75,76,81,82,,,,,,,1.6,0.8,1.4*25,1730044046057
NMEA,$PGLOR,1,FIX,1.0,1.0*20,1730044046057
NMEA,$GPRMC,154724.00,A,4228.760482,N,08323.568005,W,000.0,,271024,,,A*66,1730044046057
NMEA,$PGLOR,SPL,39241127114726.0,POS,20241027154724.000,42.479341,-83.392800,10,10,0,225,15,1.100000*79,1730044046057
NMEA,$GPGGA,154725.00,4228.760465,N,08323.568180,W,1,19,1.0,259.7,M,-34.6,M,,*50,1730044047048
NMEA,$PGLOR,12,STA,154725.00,-0.001,0.000,618,1,9,1,P,F,L,0,C,2,S,00100002,0,5,R,000833F4,TPEF,27,16128,LC,,,DR,3,0,0.2*00,1730044047049
NMEA,$PGLOR,1,UNC,154725.00,0.036,9.6,13.7,0.42,180.00,10.7,9.6,80.9*15,1730044047049
NMEA,$PGLOR,2,SAT,5,1,G10,28,1F,E08,23,1B,G32,27,1F,R02,20,1F,E13,19,1F,G23,12,20*5C,1730044047049
NMEA,$PGLOR,2,SAT,5,2,R01,24,3F,R12,29,1F,R11,22,3F,E07,14,20,G28,22,2F,E03,19,2F*59,1730044047049
NMEA,$PGLOR,2,SAT,5,3,R17,26,3F,E26,19,1F,R18,23,3F,G21,21,27,G24,19,27,E15,16,23*49,1730044047049
NMEA,$PGLOR,2,SAT,5,4,G12,15,21,G25,21,2F,R03,18,31,E02,17,2F,E25,21,2F,G02,14,2B*2D,1730044047049
NMEA,$PGLOR,2,SAT,5,5,R13,17,30,R19,11,30,R24,16,30*42,1730044047050
NMEA,$PGLOR,2,SVC,GPS,0,3,1,09,010,SKUS,SKUS,023,SKUS,SKUS,028,CLIN,CLIN,032,SKUS,SKPR*6E,1730044047050
NMEA,$PGLOR,2,SVC,GPS,0,3,2,09,012,SKUS,SKPR,021,SKUS,SKPR,024,RLPR,DOPE,025,SKUS,SKPR*65,1730044047050
NMEA,$PGLOR,2,SVC,GPS,0,3,3,09,002,SKUS,SKUS*7D,1730044047050
NMEA,$PGLOR,2,SVC,GLO,0,3,1,10,055,SKPR,SKUS,058,SKUS,SKUS,059,SKUS,SKUS,060,SKUS,SKUS*6A,1730044047050
NMEA,$PGLOR,2,SVC,GLO,0,3,2,10,056,SKUS,SKUS,057,SKUS,SKUS,063,RLPR,DOPE,064,CLIN,CLIN*6E,1730044047051
NMEA,$PGLOR,2,SVC,GLO,0,3,3,10,061,CLIN,CLIN,062,CLIN,CLIN*68,1730044047051
NMEA,$PGLOR,2,SVC,GAL,0,2,1,08,141,SKUS,SKUS,145,SKUS,SKUS,146,CLIN,CLIN,151,CLIN,CLIN*6D,1730044047051
NMEA,$PGLOR,2,SVC,GAL,0,2,2,08,140,SKUS,SKUS,153,SKUS,SKPR,163,SKUS,SKPR,164,SKUS,SKUS*69,1730044047051
NMEA,$PGLOR,2,SIO,TxERR,0,RxERR,0,TxCNT,605,RxCNT,10844,MLFRMPKT,0,DTMS,996,DTIN,34,57,DTOUT,12,940,HATMD,97*1C,1730044047051
NMEA,$PGLOR,2,HLA,154725.00,L,,Al,,A,,H,,,M,1,Ac,0,Gr,0,S,,,Sx,,,T,1,Tr,,Mn,,Ap,,Ta,0,,,Aa,1,Ga,1,*1A,1730044047051
NMEA,$PGLOR,3,CTX,154725.00,E,2,0,,,V,0,0,S,,,*7A,1730044047051
NMEA,$PGLOR,1,LSQ,154725.00,,,,,,,,,,,,,,,,00,,*3B,1730044047051
NMEA,$PGLOR,6,PWR,mA,17.1,RFTm,1001,OscTm,1001,MeasTm,1001,UTC,154725.00,GNSSmA,15.7,CPUTm,221,COPTm,113,COPMargTm,156,*00,1730044047052
NMEA,$PGLOR,0,PPS,271024,154725.000,060181,025250.633,000.100,1,0,1,*1C,1730044047052
NMEA,$PGLOR,3,AGC,G,31.9,R,47.9,B,18.5,E5A,,AL1,24.1,AL5,,LTE,,PM1,,PM5,*01,1730044047052
NMEA,$PSSGR,GSA,A,3,02,10,21,24,25,28,32,,,,,,1.7,0.8,1.5,1,1*4C,1730044047052
NMEA,$PSSGR,GSA,A,3,,,,,,,,,,,,,1.7,0.8,1.5,1,8*4F,1730044047052
NMEA,$PSSGR,GSA,A,3,,,,,,,,,,,,,1.7,0.8,1.5,1,9*4E,1730044047052
NMEA,$PSSGR,GSA,A,3,65,66,75,76,81,82,,,,,,,1.7,0.8,1.5,2,1*46,1730044047052
NMEA,$PSSGR,GSA,A,3,,,,,,,,,,,,,1.7,0.8,1.5,5,1*42,1730044047052
NMEA,$PSSGR,GSA,A,3,,,,,,,,,,,,,1.7,0.8,1.5,5,8*4B,1730044047052
NMEA,$PSSGR,GSA,A,3,,,,,,,,,,,,,1.7,0.8,1.5,5,9*4A,1730044047053
NMEA,$PSSGR,GSA,A,3,,,,,,,,,,,,,1.7,0.8,1.5,4,1*43,1730044047053
NMEA,$PSSGR,GSA,A,3,,,,,,,,,,,,,1.7,0.8,1.5,4,5*47,1730044047053
NMEA,$PSSGR,GSA,A,3,,,,,,,,,,,,,1.7,0.8,1.5,4,3*41,1730044047053
NMEA,$PSSGR,GSA,A,3,102,103,108,113,125,126,,,,,,,1.7,0.8,1.5,3,7*4A,1730044047053
NMEA,$PSSGR,GSA,A,3,,,,,,,,,,,,,1.7,0.8,1.5,3,1*44,1730044047053
NMEA,$GPGSV,3,1,09,10,85,063,34,32,66,297,31,23,43,125,20,28,34,205,26*7F,1730044047053
NMEA,$GPGSV,3,2,09,21,25,308,26,24,23,048,23,12,20,087,21,25,19,128,27*7C,1730044047053
NMEA,$GPGSV,3,3,09,02,13,322,20*41,1730044047053
NMEA,$GLGSV,3,1,10,66,58,342,27,65,41,068,28,76,40,131,33,75,36,051,26*68,1730044047053
NMEA,$GLGSV,3,2,10,81,32,250,31,82,30,308,27,67,19,292,23,77,10,169,23*60,1730044047053
NMEA,$GLGSV,3,3,10,83,07,343,17,88,05,203,22*6E,1730044047054
NMEA,$GAGSV,2,1,08,108,75,354,28,113,52,238,27,107,35,267,20,103,33,065,32*69,1730044047054
